{"1":{"name":"1","long_name":"Kaimuki-Kalihi","shapes":{"10572":[{"id":"4523","code":"4523","name":"KALIHI TRANSIT CENTER","lat":21.334465,"lon":-157.887741,"sequence":1},{"id":"163","code":"163","name":"KALIHI-PALAMA BUS FACILITY","lat":21.336199,"lon":-157.886154,"sequence":2},{"id":"1025","code":"1025","name":"N KING ST + UMI ST","lat":21.3349,"lon":-157.880928,"sequence":3},{"id":"993","code":"993","name":"N KING ST + GULICK AVE","lat":21.33298,"lon":-157.878942,"sequence":4},{"id":"3061","code":"3061","name":"N KING ST + MOKAUEA ST","lat":21.331772,"lon":-157.877451,"sequence":5},{"id":"994","code":"994","name":"N KING ST + KALIHI ST","lat":21.330742,"lon":-157.875131,"sequence":6},{"id":"3062","code":"3062","name":"N KING ST + HAKA DR","lat":21.329777,"lon":-157.873349,"sequence":7},{"id":"3063","code":"3063","name":"N KING ST + WAIAKAMILO RD","lat":21.327977,"lon":-157.87104,"sequence":8},{"id":"3064","code":"3064","name":"N KING ST + KOHOU ST","lat":21.325159,"lon":-157.86908,"sequence":9},{"id":"995","code":"995","name":"N KING ST + KOKEA ST","lat":21.324317,"lon":-157.868601,"sequence":10},{"id":"3065","code":"3065","name":"N KING ST + HIKINA LN","lat":21.323382,"lon":-157.868158,"sequence":11},{"id":"1027","code":"1027","name":"N KING ST + OPP PALAMA ST","lat":21.321577,"lon":-157.867078,"sequence":12},{"id":"996","code":"996","name":"N KING ST + DILLINGHAM BL","lat":21.318734,"lon":-157.864991,"sequence":13},{"id":"124","code":"124","name":"N KING ST + N BERETANIA ST","lat":21.316816,"lon":-157.864327,"sequence":14},{"id":"126","code":"126","name":"N HOTEL ST + MAUNAKEA ST","lat":21.312312,"lon":-157.862868,"sequence":15},{"id":"127","code":"127","name":"S HOTEL ST + BETHEL ST","lat":21.310586,"lon":-157.86167,"sequence":16},{"id":"128","code":"128","name":"S HOTEL ST + BISHOP ST","lat":21.309428,"lon":-157.860534,"sequence":17},{"id":"130","code":"130","name":"S HOTEL ST + RICHARDS ST","lat":21.308307,"lon":-157.858888,"sequence":18},{"id":"131","code":"131","name":"S KING ST + PUNCHBOWL ST","lat":21.305103,"lon":-157.858239,"sequence":19},{"id":"132","code":"132","name":"S KING ST + SOUTH ST","lat":21.303626,"lon":-157.85525,"sequence":20},{"id":"133","code":"133","name":"S KING ST + COOKE ST","lat":21.303136,"lon":-157.853498,"sequence":21},{"id":"135","code":"135","name":"S KING ST + WARD AVE","lat":21.301652,"lon":-157.849339,"sequence":22},{"id":"137","code":"137","name":"S KING ST + PENSACOLA ST","lat":21.300443,"lon":-157.845924,"sequence":23},{"id":"138","code":"138","name":"S KING ST + PIIKOI ST","lat":21.299856,"lon":-157.844223,"sequence":24},{"id":"139","code":"139","name":"S KING ST + CEDAR ST","lat":21.299045,"lon":-157.841921,"sequence":25},{"id":"140","code":"140","name":"S KING ST + KEEAUMOKU ST","lat":21.298364,"lon":-157.839979,"sequence":26},{"id":"141","code":"141","name":"S KING ST + KAHEKA ST","lat":21.297695,"lon":-157.838136,"sequence":27},{"id":"852","code":"852","name":"S KING ST + PUNAHOU ST","lat":21.297026,"lon":-157.836241,"sequence":28},{"id":"854","code":"854","name":"S KING ST + HAUOLI ST","lat":21.295746,"lon":-157.832653,"sequence":29},{"id":"856","code":"856","name":"S KING ST + MCCULLY ST","lat":21.294719,"lon":-157.829805,"sequence":30},{"id":"858","code":"858","name":"S KING ST + MAKAHIKI WAY","lat":21.293972,"lon":-157.827699,"sequence":31},{"id":"859","code":"859","name":"S KING ST + ISENBERG ST","lat":21.293132,"lon":-157.825366,"sequence":32},{"id":"3067","code":"3067","name":"S KING ST + KAPAAKEA LN","lat":21.292098,"lon":-157.822578,"sequence":33},{"id":"3068","code":"3068","name":"S KING ST + KAHUNA LN","lat":21.291357,"lon":-157.820999,"sequence":34},{"id":"3070","code":"3070","name":"S KING ST + CHURCH LN","lat":21.289723,"lon":-157.81795,"sequence":35},{"id":"2997","code":"2997","name":"KAPIOLANI BL + WAIALAE AVE","lat":21.288822,"lon":-157.814098,"sequence":36},{"id":"2998","code":"2998","name":"WAIALAE AVE + OPP ST LOUIS DR","lat":21.288898,"lon":-157.81122,"sequence":37},{"id":"2999","code":"2999","name":"WAIALAE AVE + 3RD AVE","lat":21.287834,"lon":-157.809132,"sequence":38},{"id":"3071","code":"3071","name":"WAIALAE AVE + 4TH AVE","lat":21.287055,"lon":-157.807612,"sequence":39},{"id":"3073","code":"3073","name":"WAIALAE AVE + 7TH AVE","lat":21.285852,"lon":-157.805256,"sequence":40},{"id":"3075","code":"3075","name":"WAIALAE AVE + 9TH AVE","lat":21.284408,"lon":-157.802399,"sequence":41},{"id":"3076","code":"3076","name":"WAIALAE AVE + 10TH AVE","lat":21.283794,"lon":-157.801246,"sequence":42},{"id":"3078","code":"3078","name":"WAIALAE AVE + KOKO HEAD AVE","lat":21.282374,"lon":-157.798399,"sequence":43},{"id":"3079","code":"3079","name":"WAIALAE AVE + 14TH AVE","lat":21.281162,"lon":-157.796065,"sequence":44},{"id":"3081","code":"3081","name":"WAIALAE AVE + 16TH AVE","lat":21.280221,"lon":-157.794282,"sequence":45},{"id":"3084","code":"3084","name":"WAIALAE AVE + HUNAKAI ST","lat":21.278548,"lon":-157.787643,"sequence":46},{"id":"3153","code":"3153","name":"KILAUEA AVE + WAIALAE AVE","lat":21.278953,"lon":-157.784441,"sequence":47},{"id":"3154","code":"3154","name":"MALIA ST + KILAUEA AVE","lat":21.280449,"lon":-157.783846,"sequence":48}],"10516":[{"id":"4523","code":"4523","name":"KALIHI TRANSIT CENTER","lat":21.334465,"lon":-157.887741,"sequence":1},{"id":"163","code":"163","name":"KALIHI-PALAMA BUS FACILITY","lat":21.336199,"lon":-157.886154,"sequence":2},{"id":"1025","code":"1025","name":"N KING ST + UMI ST","lat":21.3349,"lon":-157.880928,"sequence":3},{"id":"993","code":"993","name":"N KING ST + GULICK AVE","lat":21.33298,"lon":-157.878942,"sequence":4},{"id":"3061","code":"3061","name":"N KING ST + MOKAUEA ST","lat":21.331772,"lon":-157.877451,"sequence":5},{"id":"994","code":"994","name":"N KING ST + KALIHI ST","lat":21.330742,"lon":-157.875131,"sequence":6},{"id":"3062","code":"3062","name":"N KING ST + HAKA DR","lat":21.329777,"lon":-157.873349,"sequence":7},{"id":"3063","code":"3063","name":"N KING ST + WAIAKAMILO RD","lat":21.327977,"lon":-157.87104,"sequence":8},{"id":"3064","code":"3064","name":"N KING ST + KOHOU ST","lat":21.325159,"lon":-157.86908,"sequence":9},{"id":"995","code":"995","name":"N KING ST + KOKEA ST","lat":21.324317,"lon":-157.868601,"sequence":10},{"id":"3065","code":"3065","name":"N KING ST + HIKINA LN","lat":21.323382,"lon":-157.868158,"sequence":11},{"id":"1027","code":"1027","name":"N KING ST + OPP PALAMA ST","lat":21.321577,"lon":-157.867078,"sequence":12},{"id":"996","code":"996","name":"N KING ST + DILLINGHAM BL","lat":21.318734,"lon":-157.864991,"sequence":13},{"id":"124","code":"124","name":"N KING ST + N BERETANIA ST","lat":21.316816,"lon":-157.864327,"sequence":14},{"id":"126","code":"126","name":"N HOTEL ST + MAUNAKEA ST","lat":21.312312,"lon":-157.862868,"sequence":15},{"id":"127","code":"127","name":"S HOTEL ST + BETHEL ST","lat":21.310586,"lon":-157.86167,"sequence":16},{"id":"128","code":"128","name":"S HOTEL ST + BISHOP ST","lat":21.309428,"lon":-157.860534,"sequence":17},{"id":"130","code":"130","name":"S HOTEL ST + RICHARDS ST","lat":21.308307,"lon":-157.858888,"sequence":18},{"id":"131","code":"131","name":"S KING ST + PUNCHBOWL ST","lat":21.305103,"lon":-157.858239,"sequence":19},{"id":"132","code":"132","name":"S KING ST + SOUTH ST","lat":21.303626,"lon":-157.85525,"sequence":20},{"id":"133","code":"133","name":"S KING ST + COOKE ST","lat":21.303136,"lon":-157.853498,"sequence":21},{"id":"135","code":"135","name":"S KING ST + WARD AVE","lat":21.301652,"lon":-157.849339,"sequence":22},{"id":"137","code":"137","name":"S KING ST + PENSACOLA ST","lat":21.300443,"lon":-157.845924,"sequence":23},{"id":"138","code":"138","name":"S KING ST + PIIKOI ST","lat":21.299856,"lon":-157.844223,"sequence":24},{"id":"139","code":"139","name":"S KING ST + CEDAR ST","lat":21.299045,"lon":-157.841921,"sequence":25},{"id":"140","code":"140","name":"S KING ST + KEEAUMOKU ST","lat":21.298364,"lon":-157.839979,"sequence":26},{"id":"141","code":"141","name":"S KING ST + KAHEKA ST","lat":21.297695,"lon":-157.838136,"sequence":27},{"id":"852","code":"852","name":"S KING ST + PUNAHOU ST","lat":21.297026,"lon":-157.836241,"sequence":28},{"id":"854","code":"854","name":"S KING ST + HAUOLI ST","lat":21.295746,"lon":-157.832653,"sequence":29},{"id":"856","code":"856","name":"S KING ST + MCCULLY ST","lat":21.294719,"lon":-157.829805,"sequence":30},{"id":"858","code":"858","name":"S KING ST + MAKAHIKI WAY","lat":21.293972,"lon":-157.827699,"sequence":31},{"id":"859","code":"859","name":"S KING ST + ISENBERG ST","lat":21.293132,"lon":-157.825366,"sequence":32},{"id":"3067","code":"3067","name":"S KING ST + KAPAAKEA LN","lat":21.292098,"lon":-157.822578,"sequence":33},{"id":"3068","code":"3068","name":"S KING ST + KAHUNA LN","lat":21.291357,"lon":-157.820999,"sequence":34},{"id":"3070","code":"3070","name":"S KING ST + CHURCH LN","lat":21.289723,"lon":-157.81795,"sequence":35},{"id":"2997","code":"2997","name":"KAPIOLANI BL + WAIALAE AVE","lat":21.288822,"lon":-157.814098,"sequence":36},{"id":"2998","code":"2998","name":"WAIALAE AVE + OPP ST LOUIS DR","lat":21.288898,"lon":-157.81122,"sequence":37},{"id":"2999","code":"2999","name":"WAIALAE AVE + 3RD AVE","lat":21.287834,"lon":-157.809132,"sequence":38},{"id":"3071","code":"3071","name":"WAIALAE AVE + 4TH AVE","lat":21.287055,"lon":-157.807612,"sequence":39},{"id":"3073","code":"3073","name":"WAIALAE AVE + 7TH AVE","lat":21.285852,"lon":-157.805256,"sequence":40},{"id":"3075","code":"3075","name":"WAIALAE AVE + 9TH AVE","lat":21.284408,"lon":-157.802399,"sequence":41},{"id":"3076","code":"3076","name":"WAIALAE AVE + 10TH AVE","lat":21.283794,"lon":-157.801246,"sequence":42},{"id":"3078","code":"3078","name":"WAIALAE AVE + KOKO HEAD AVE","lat":21.282374,"lon":-157.798399,"sequence":43},{"id":"3079","code":"3079","name":"WAIALAE AVE + 14TH AVE","lat":21.281162,"lon":-157.796065,"sequence":44},{"id":"3081","code":"3081","name":"WAIALAE AVE + 16TH AVE","lat":21.280221,"lon":-157.794282,"sequence":45},{"id":"3084","code":"3084","name":"WAIALAE AVE + HUNAKAI ST","lat":21.278548,"lon":-157.787643,"sequence":46},{"id":"3085","code":"3085","name":"WAIALAE AVE + KILAUEA AVE","lat":21.278307,"lon":-157.785193,"sequence":47},{"id":"253","code":"253","name":"KALANIANAOLE HWY + WAIKUI ST","lat":21.277689,"lon":-157.779347,"sequence":48},{"id":"254","code":"254","name":"KALANIANAOLE HWY + WAIELI ST","lat":21.277307,"lon":-157.775842,"sequence":49},{"id":"255","code":"255","name":"KALANIANAOLE HWY + WAIHOLO ST","lat":21.276796,"lon":-157.771959,"sequence":50},{"id":"256","code":"256","name":"KALANIANAOLE HWY + KAIMOKU PL","lat":21.27595,"lon":-157.767308,"sequence":51},{"id":"257","code":"257","name":"KALANIANAOLE HWY + OPP WAA ST","lat":21.276141,"lon":-157.763455,"sequence":52},{"id":"259","code":"259","name":"KALANIANAOLE HWY + WAILUPE CIR","lat":21.276984,"lon":-157.757937,"sequence":53},{"id":"3086","code":"3086","name":"W HIND DR + KALANIANAOLE HWY","lat":21.278594,"lon":-157.755254,"sequence":54},{"id":"3087","code":"3087","name":"W HIND DR + OIO DR","lat":21.280904,"lon":-157.755653,"sequence":55},{"id":"3088","code":"3088","name":"W HIND DR + APO DR","lat":21.282274,"lon":-157.75578,"sequence":56},{"id":"3089","code":"3089","name":"W HIND DR + OIO DR","lat":21.283662,"lon":-157.75583,"sequence":57},{"id":"3090","code":"3090","name":"W HIND DR + OPP KIHOLO ST","lat":21.284913,"lon":-157.753797,"sequence":58},{"id":"3091","code":"3091","name":"E HIND DR + OPIHI ST","lat":21.284456,"lon":-157.752163,"sequence":59},{"id":"3092","code":"3092","name":"E HIND DR + HIND PL","lat":21.282005,"lon":-157.751016,"sequence":60},{"id":"3094","code":"3094","name":"E HIND DR + PAPAI ST","lat":21.279691,"lon":-157.749932,"sequence":61},{"id":"262","code":"262","name":"KALANIANAOLE HWY + OPP E HIND DR","lat":21.278673,"lon":-157.748964,"sequence":62},{"id":"263","code":"263","name":"KALANIANAOLE HWY + OPP PUUIKENA DR","lat":21.280002,"lon":-157.74396,"sequence":63},{"id":"264","code":"264","name":"KALANIANAOLE HWY + OPP W HALEMAUMAU","lat":21.280728,"lon":-157.739015,"sequence":64},{"id":"265","code":"265","name":"KALANIANAOLE HWY + OPP E HALEMAUMAU","lat":21.282174,"lon":-157.733607,"sequence":65},{"id":"266","code":"266","name":"KALANIANAOLE HWY + PAIKO DR","lat":21.282828,"lon":-157.730356,"sequence":66},{"id":"267","code":"267","name":"KALANIANAOLE HWY + PAEOKI PL","lat":21.285368,"lon":-157.725148,"sequence":67},{"id":"268","code":"268","name":"KALANIANAOLE HWY + KULIOUOU RD","lat":21.285922,"lon":-157.722897,"sequence":68},{"id":"3109","code":"3109","name":"KAWAIHAE ST + OPP MAY WAY","lat":21.286461,"lon":-157.719278,"sequence":69},{"id":"3110","code":"3110","name":"KAWAIHAE ST + MILOLII PL","lat":21.288444,"lon":-157.718822,"sequence":70},{"id":"3111","code":"3111","name":"KAWAIHAE ST + KEOKEA PL","lat":21.290081,"lon":-157.718316,"sequence":71},{"id":"3112","code":"3112","name":"KAWAIHAE ST + AWINI PL","lat":21.291432,"lon":-157.717546,"sequence":72},{"id":"3113","code":"3113","name":"KAWAIHAE ST + OPP KAALAKEI ST","lat":21.292608,"lon":-157.7162,"sequence":73},{"id":"3114","code":"3114","name":"KAWAIHAE ST + 469","lat":21.291577,"lon":-157.71504,"sequence":74},{"id":"3115","code":"3115","name":"KAWAIHAE ST + HAKALAU PL","lat":21.289158,"lon":-157.714753,"sequence":75},{"id":"3116","code":"3116","name":"HAWAII KAI DR + OOKALA PL","lat":21.289112,"lon":-157.713239,"sequence":76},{"id":"3117","code":"3117","name":"HAWAII KAI DR + OPIHIKAO PL","lat":21.289892,"lon":-157.712199,"sequence":77},{"id":"3691","code":"3691","name":"HAWAII KAI DR + KUMUKAHI PL","lat":21.293787,"lon":-157.709445,"sequence":78},{"id":"3132","code":"3132","name":"HAWAII KAI DR + OPP HAHAIONE ST","lat":21.293383,"lon":-157.708092,"sequence":79},{"id":"3133","code":"3133","name":"HAWAII KAI DR + HAPUNA PL","lat":21.291144,"lon":-157.707493,"sequence":80},{"id":"3134","code":"3134","name":"HAWAII KAI DR + AINAHOU ST","lat":21.287417,"lon":-157.706162,"sequence":81},{"id":"3135","code":"3135","name":"KEAHOLE ST + OPP HAWAII KAI SHOPPING CENTER","lat":21.285977,"lon":-157.707473,"sequence":82},{"id":"3136","code":"3136","name":"KEAHOLE ST + OPP HAWAII KAI TOWNE CENTER","lat":21.284353,"lon":-157.711339,"sequence":83},{"id":"3137","code":"3137","name":"KEAHOLE ST + HAWAII KAI PARK & RIDE","lat":21.283986,"lon":-157.712851,"sequence":84},{"id":"271","code":"271","name":"KALANIANAOLE HWY + OPP KEAHOLE ST","lat":21.282774,"lon":-157.714934,"sequence":85},{"id":"272","code":"272","name":"KALANIANAOLE HWY + 6999","lat":21.2803,"lon":-157.710043,"sequence":86},{"id":"273","code":"273","name":"KALANIANAOLE HWY + PORTLOCK RD","lat":21.279291,"lon":-157.70884,"sequence":87},{"id":"1203","code":"1203","name":"LUNALILO HOME RD + KALANIANAOLE HWY","lat":21.276537,"lon":-157.704293,"sequence":88},{"id":"1204","code":"1204","name":"LUNALILO HOME RD + KAUMAKANI ST","lat":21.27784,"lon":-157.703406,"sequence":89},{"id":"1206","code":"1206","name":"LUNALILO HOME RD + ANAPALAU ST","lat":21.279534,"lon":-157.70213,"sequence":90},{"id":"1208","code":"1208","name":"LUNALILO HOME RD + KAUMAKANI ST","lat":21.282543,"lon":-157.700025,"sequence":91},{"id":"1209","code":"1209","name":"LUNALILO HOME RD + KALAKUA ST","lat":21.28403,"lon":-157.698993,"sequence":92},{"id":"1210","code":"1210","name":"LUNALILO HOME RD + KAISER HIGH SCHOOL","lat":21.285977,"lon":-157.697703,"sequence":93},{"id":"1211","code":"1211","name":"LUNALILO HOME RD + KAPAIA ST","lat":21.287059,"lon":-157.69714,"sequence":94},{"id":"1213","code":"1213","name":"LUNALILO HOME RD + OPP KALANIPUU ST","lat":21.290387,"lon":-157.695053,"sequence":95},{"id":"1214","code":"1214","name":"LUNALILO HOME RD + AHUKINI ST","lat":21.291722,"lon":-157.693693,"sequence":96},{"id":"1216","code":"1216","name":"LUNALILO HOME RD + KALANIPUU ST","lat":21.294382,"lon":-157.690947,"sequence":97},{"id":"3145","code":"3145","name":"LUNALILO HOME RD + HAWAII KAI DR","lat":21.296658,"lon":-157.688562,"sequence":98},{"id":"3146","code":"3146","name":"LUNALILO HOME RD + KIPU PL","lat":21.297837,"lon":-157.687705,"sequence":99},{"id":"3147","code":"3147","name":"LUNALILO HOME RD + OPAEKAA ST","lat":21.299386,"lon":-157.686594,"sequence":100},{"id":"3148","code":"3148","name":"LUNALILO HOME RD + WAINIHA ST","lat":21.301254,"lon":-157.68593,"sequence":101},{"id":"3149","code":"3149","name":"LUNALILO HOME RD + ELEELE PL","lat":21.302655,"lon":-157.684745,"sequence":102},{"id":"3150","code":"3150","name":"LUNALILO HOME RD + KALAPAKI ST","lat":21.304207,"lon":-157.684474,"sequence":103},{"id":"3151","code":"3151","name":"LUNALILO HOME RD + OPP WAINIHA ST","lat":21.306168,"lon":-157.684437,"sequence":104},{"id":"3152","code":"3152","name":"LUNALILO HOME RD + OPP KOLOKOLO ST","lat":21.307187,"lon":-157.683928,"sequence":105}],"10573":[{"id":"4523","code":"4523","name":"KALIHI TRANSIT CENTER","lat":21.334465,"lon":-157.887741,"sequence":1},{"id":"163","code":"163","name":"KALIHI-PALAMA BUS FACILITY","lat":21.336199,"lon":-157.886154,"sequence":2},{"id":"1025","code":"1025","name":"N KING ST + UMI ST","lat":21.3349,"lon":-157.880928,"sequence":3},{"id":"993","code":"993","name":"N KING ST + GULICK AVE","lat":21.33298,"lon":-157.878942,"sequence":4},{"id":"3061","code":"3061","name":"N KING ST + MOKAUEA ST","lat":21.331772,"lon":-157.877451,"sequence":5},{"id":"994","code":"994","name":"N KING ST + KALIHI ST","lat":21.330742,"lon":-157.875131,"sequence":6},{"id":"3062","code":"3062","name":"N KING ST + HAKA DR","lat":21.329777,"lon":-157.873349,"sequence":7},{"id":"3063","code":"3063","name":"N KING ST + WAIAKAMILO RD","lat":21.327977,"lon":-157.87104,"sequence":8},{"id":"3064","code":"3064","name":"N KING ST + KOHOU ST","lat":21.325159,"lon":-157.86908,"sequence":9},{"id":"995","code":"995","name":"N KING ST + KOKEA ST","lat":21.324317,"lon":-157.868601,"sequence":10},{"id":"3065","code":"3065","name":"N KING ST + HIKINA LN","lat":21.323382,"lon":-157.868158,"sequence":11},{"id":"1027","code":"1027","name":"N KING ST + OPP PALAMA ST","lat":21.321577,"lon":-157.867078,"sequence":12},{"id":"996","code":"996","name":"N KING ST + DILLINGHAM BL","lat":21.318734,"lon":-157.864991,"sequence":13},{"id":"124","code":"124","name":"N KING ST + N BERETANIA ST","lat":21.316816,"lon":-157.864327,"sequence":14},{"id":"126","code":"126","name":"N HOTEL ST + MAUNAKEA ST","lat":21.312312,"lon":-157.862868,"sequence":15},{"id":"127","code":"127","name":"S HOTEL ST + BETHEL ST","lat":21.310586,"lon":-157.86167,"sequence":16},{"id":"128","code":"128","name":"S HOTEL ST + BISHOP ST","lat":21.309428,"lon":-157.860534,"sequence":17},{"id":"130","code":"130","name":"S HOTEL ST + RICHARDS ST","lat":21.308307,"lon":-157.858888,"sequence":18},{"id":"131","code":"131","name":"S KING ST + PUNCHBOWL ST","lat":21.305103,"lon":-157.858239,"sequence":19},{"id":"132","code":"132","name":"S KING ST + SOUTH ST","lat":21.303626,"lon":-157.85525,"sequence":20},{"id":"133","code":"133","name":"S KING ST + COOKE ST","lat":21.303136,"lon":-157.853498,"sequence":21},{"id":"135","code":"135","name":"S KING ST + WARD AVE","lat":21.301652,"lon":-157.849339,"sequence":22},{"id":"137","code":"137","name":"S KING ST + PENSACOLA ST","lat":21.300443,"lon":-157.845924,"sequence":23},{"id":"138","code":"138","name":"S KING ST + PIIKOI ST","lat":21.299856,"lon":-157.844223,"sequence":24},{"id":"139","code":"139","name":"S KING ST + CEDAR ST","lat":21.299045,"lon":-157.841921,"sequence":25},{"id":"140","code":"140","name":"S KING ST + KEEAUMOKU ST","lat":21.298364,"lon":-157.839979,"sequence":26},{"id":"141","code":"141","name":"S KING ST + KAHEKA ST","lat":21.297695,"lon":-157.838136,"sequence":27},{"id":"852","code":"852","name":"S KING ST + PUNAHOU ST","lat":21.297026,"lon":-157.836241,"sequence":28},{"id":"854","code":"854","name":"S KING ST + HAUOLI ST","lat":21.295746,"lon":-157.832653,"sequence":29},{"id":"856","code":"856","name":"S KING ST + MCCULLY ST","lat":21.294719,"lon":-157.829805,"sequence":30},{"id":"858","code":"858","name":"S KING ST + MAKAHIKI WAY","lat":21.293972,"lon":-157.827699,"sequence":31},{"id":"859","code":"859","name":"S KING ST + ISENBERG ST","lat":21.293132,"lon":-157.825366,"sequence":32},{"id":"3067","code":"3067","name":"S KING ST + KAPAAKEA LN","lat":21.292098,"lon":-157.822578,"sequence":33},{"id":"3068","code":"3068","name":"S KING ST + KAHUNA LN","lat":21.291357,"lon":-157.820999,"sequence":34},{"id":"3070","code":"3070","name":"S KING ST + CHURCH LN","lat":21.289723,"lon":-157.81795,"sequence":35},{"id":"2997","code":"2997","name":"KAPIOLANI BL + WAIALAE AVE","lat":21.288822,"lon":-157.814098,"sequence":36},{"id":"2998","code":"2998","name":"WAIALAE AVE + OPP ST LOUIS DR","lat":21.288898,"lon":-157.81122,"sequence":37},{"id":"2999","code":"2999","name":"WAIALAE AVE + 3RD AVE","lat":21.287834,"lon":-157.809132,"sequence":38},{"id":"3071","code":"3071","name":"WAIALAE AVE + 4TH AVE","lat":21.287055,"lon":-157.807612,"sequence":39},{"id":"3073","code":"3073","name":"WAIALAE AVE + 7TH AVE","lat":21.285852,"lon":-157.805256,"sequence":40},{"id":"3075","code":"3075","name":"WAIALAE AVE + 9TH AVE","lat":21.284408,"lon":-157.802399,"sequence":41},{"id":"3076","code":"3076","name":"WAIALAE AVE + 10TH AVE","lat":21.283794,"lon":-157.801246,"sequence":42},{"id":"3078","code":"3078","name":"WAIALAE AVE + KOKO HEAD AVE","lat":21.282374,"lon":-157.798399,"sequence":43},{"id":"3079","code":"3079","name":"WAIALAE AVE + 14TH AVE","lat":21.281162,"lon":-157.796065,"sequence":44},{"id":"3081","code":"3081","name":"WAIALAE AVE + 16TH AVE","lat":21.280221,"lon":-157.794282,"sequence":45},{"id":"3084","code":"3084","name":"WAIALAE AVE + HUNAKAI ST","lat":21.278548,"lon":-157.787643,"sequence":46},{"id":"3153","code":"3153","name":"KILAUEA AVE + WAIALAE AVE","lat":21.278953,"lon":-157.784441,"sequence":47},{"id":"3154","code":"3154","name":"MALIA ST + KILAUEA AVE","lat":21.280449,"lon":-157.783846,"sequence":48},{"id":"3156","code":"3156","name":"MALIA ST + AINAKOA AVE","lat":21.280293,"lon":-157.779498,"sequence":49},{"id":"3157","code":"3157","name":"AINAKOA AVE + ALIIKOA ST","lat":21.278663,"lon":-157.779626,"sequence":50}],"10522":[{"id":"4523","code":"4523","name":"KALIHI TRANSIT CENTER","lat":21.334465,"lon":-157.887741,"sequence":1},{"id":"163","code":"163","name":"KALIHI-PALAMA BUS FACILITY","lat":21.336199,"lon":-157.886154,"sequence":2},{"id":"1025","code":"1025","name":"N KING ST + UMI ST","lat":21.3349,"lon":-157.880928,"sequence":3},{"id":"993","code":"993","name":"N KING ST + GULICK AVE","lat":21.33298,"lon":-157.878942,"sequence":4},{"id":"3061","code":"3061","name":"N KING ST + MOKAUEA ST","lat":21.331772,"lon":-157.877451,"sequence":5},{"id":"994","code":"994","name":"N KING ST + KALIHI ST","lat":21.330742,"lon":-157.875131,"sequence":6},{"id":"3062","code":"3062","name":"N KING ST + HAKA DR","lat":21.329777,"lon":-157.873349,"sequence":7},{"id":"3063","code":"3063","name":"N KING ST + WAIAKAMILO RD","lat":21.327977,"lon":-157.87104,"sequence":8},{"id":"3064","code":"3064","name":"N KING ST + KOHOU ST","lat":21.325159,"lon":-157.86908,"sequence":9},{"id":"995","code":"995","name":"N KING ST + KOKEA ST","lat":21.324317,"lon":-157.868601,"sequence":10},{"id":"3065","code":"3065","name":"N KING ST + HIKINA LN","lat":21.323382,"lon":-157.868158,"sequence":11},{"id":"1027","code":"1027","name":"N KING ST + OPP PALAMA ST","lat":21.321577,"lon":-157.867078,"sequence":12},{"id":"996","code":"996","name":"N KING ST + DILLINGHAM BL","lat":21.318734,"lon":-157.864991,"sequence":13},{"id":"124","code":"124","name":"N KING ST + N BERETANIA ST","lat":21.316816,"lon":-157.864327,"sequence":14},{"id":"126","code":"126","name":"N HOTEL ST + MAUNAKEA ST","lat":21.312312,"lon":-157.862868,"sequence":15},{"id":"127","code":"127","name":"S HOTEL ST + BETHEL ST","lat":21.310586,"lon":-157.86167,"sequence":16},{"id":"128","code":"128","name":"S HOTEL ST + BISHOP ST","lat":21.309428,"lon":-157.860534,"sequence":17},{"id":"130","code":"130","name":"S HOTEL ST + RICHARDS ST","lat":21.308307,"lon":-157.858888,"sequence":18},{"id":"131","code":"131","name":"S KING ST + PUNCHBOWL ST","lat":21.305103,"lon":-157.858239,"sequence":19},{"id":"132","code":"132","name":"S KING ST + SOUTH ST","lat":21.303626,"lon":-157.85525,"sequence":20},{"id":"133","code":"133","name":"S KING ST + COOKE ST","lat":21.303136,"lon":-157.853498,"sequence":21},{"id":"135","code":"135","name":"S KING ST + WARD AVE","lat":21.301652,"lon":-157.849339,"sequence":22},{"id":"137","code":"137","name":"S KING ST + PENSACOLA ST","lat":21.300443,"lon":-157.845924,"sequence":23},{"id":"138","code":"138","name":"S KING ST + PIIKOI ST","lat":21.299856,"lon":-157.844223,"sequence":24},{"id":"139","code":"139","name":"S KING ST + CEDAR ST","lat":21.299045,"lon":-157.841921,"sequence":25},{"id":"140","code":"140","name":"S KING ST + KEEAUMOKU ST","lat":21.298364,"lon":-157.839979,"sequence":26},{"id":"141","code":"141","name":"S KING ST + KAHEKA ST","lat":21.297695,"lon":-157.838136,"sequence":27},{"id":"852","code":"852","name":"S KING ST + PUNAHOU ST","lat":21.297026,"lon":-157.836241,"sequence":28},{"id":"854","code":"854","name":"S KING ST + HAUOLI ST","lat":21.295746,"lon":-157.832653,"sequence":29},{"id":"856","code":"856","name":"S KING ST + MCCULLY ST","lat":21.294719,"lon":-157.829805,"sequence":30},{"id":"858","code":"858","name":"S KING ST + MAKAHIKI WAY","lat":21.293972,"lon":-157.827699,"sequence":31},{"id":"859","code":"859","name":"S KING ST + ISENBERG ST","lat":21.293132,"lon":-157.825366,"sequence":32},{"id":"3067","code":"3067","name":"S KING ST + KAPAAKEA LN","lat":21.292098,"lon":-157.822578,"sequence":33},{"id":"3068","code":"3068","name":"S KING ST + KAHUNA LN","lat":21.291357,"lon":-157.820999,"sequence":34},{"id":"3070","code":"3070","name":"S KING ST + CHURCH LN","lat":21.289723,"lon":-157.81795,"sequence":35},{"id":"2997","code":"2997","name":"KAPIOLANI BL + WAIALAE AVE","lat":21.288822,"lon":-157.814098,"sequence":36},{"id":"2998","code":"2998","name":"WAIALAE AVE + OPP ST LOUIS DR","lat":21.288898,"lon":-157.81122,"sequence":37},{"id":"2999","code":"2999","name":"WAIALAE AVE + 3RD AVE","lat":21.287834,"lon":-157.809132,"sequence":38},{"id":"3071","code":"3071","name":"WAIALAE AVE + 4TH AVE","lat":21.287055,"lon":-157.807612,"sequence":39},{"id":"3073","code":"3073","name":"WAIALAE AVE + 7TH AVE","lat":21.285852,"lon":-157.805256,"sequence":40},{"id":"3075","code":"3075","name":"WAIALAE AVE + 9TH AVE","lat":21.284408,"lon":-157.802399,"sequence":41},{"id":"3076","code":"3076","name":"WAIALAE AVE + 10TH AVE","lat":21.283794,"lon":-157.801246,"sequence":42},{"id":"3078","code":"3078","name":"WAIALAE AVE + KOKO HEAD AVE","lat":21.282374,"lon":-157.798399,"sequence":43},{"id":"3079","code":"3079","name":"WAIALAE AVE + 14TH AVE","lat":21.281162,"lon":-157.796065,"sequence":44},{"id":"3081","code":"3081","name":"WAIALAE AVE + 16TH AVE","lat":21.280221,"lon":-157.794282,"sequence":45},{"id":"3084","code":"3084","name":"WAIALAE AVE + HUNAKAI ST","lat":21.278548,"lon":-157.787643,"sequence":46},{"id":"3085","code":"3085","name":"WAIALAE AVE + KILAUEA AVE","lat":21.278307,"lon":-157.785193,"sequence":47},{"id":"253","code":"253","name":"KALANIANAOLE HWY + WAIKUI ST","lat":21.277689,"lon":-157.779347,"sequence":48},{"id":"254","code":"254","name":"KALANIANAOLE HWY + WAIELI ST","lat":21.277307,"lon":-157.775842,"sequence":49},{"id":"255","code":"255","name":"KALANIANAOLE HWY + WAIHOLO ST","lat":21.276796,"lon":-157.771959,"sequence":50},{"id":"256","code":"256","name":"KALANIANAOLE HWY + KAIMOKU PL","lat":21.27595,"lon":-157.767308,"sequence":51},{"id":"257","code":"257","name":"KALANIANAOLE HWY + OPP WAA ST","lat":21.276141,"lon":-157.763455,"sequence":52},{"id":"259","code":"259","name":"KALANIANAOLE HWY + WAILUPE CIR","lat":21.276984,"lon":-157.757937,"sequence":53},{"id":"3086","code":"3086","name":"W HIND DR + KALANIANAOLE HWY","lat":21.278594,"lon":-157.755254,"sequence":54},{"id":"3087","code":"3087","name":"W HIND DR + OIO DR","lat":21.280904,"lon":-157.755653,"sequence":55},{"id":"3088","code":"3088","name":"W HIND DR + APO DR","lat":21.282274,"lon":-157.75578,"sequence":56},{"id":"3089","code":"3089","name":"W HIND DR + OIO DR","lat":21.283662,"lon":-157.75583,"sequence":57},{"id":"3090","code":"3090","name":"W HIND DR + OPP KIHOLO ST","lat":21.284913,"lon":-157.753797,"sequence":58},{"id":"3091","code":"3091","name":"E HIND DR + OPIHI ST","lat":21.284456,"lon":-157.752163,"sequence":59},{"id":"3092","code":"3092","name":"E HIND DR + HIND PL","lat":21.282005,"lon":-157.751016,"sequence":60},{"id":"3094","code":"3094","name":"E HIND DR + PAPAI ST","lat":21.279691,"lon":-157.749932,"sequence":61},{"id":"262","code":"262","name":"KALANIANAOLE HWY + OPP E HIND DR","lat":21.278673,"lon":-157.748964,"sequence":62},{"id":"263","code":"263","name":"KALANIANAOLE HWY + OPP PUUIKENA DR","lat":21.280002,"lon":-157.74396,"sequence":63},{"id":"264","code":"264","name":"KALANIANAOLE HWY + OPP W HALEMAUMAU","lat":21.280728,"lon":-157.739015,"sequence":64},{"id":"265","code":"265","name":"KALANIANAOLE HWY + OPP E HALEMAUMAU","lat":21.282174,"lon":-157.733607,"sequence":65},{"id":"266","code":"266","name":"KALANIANAOLE HWY + PAIKO DR","lat":21.282828,"lon":-157.730356,"sequence":66},{"id":"267","code":"267","name":"KALANIANAOLE HWY + PAEOKI PL","lat":21.285368,"lon":-157.725148,"sequence":67},{"id":"268","code":"268","name":"KALANIANAOLE HWY + KULIOUOU RD","lat":21.285922,"lon":-157.722897,"sequence":68},{"id":"3109","code":"3109","name":"KAWAIHAE ST + OPP MAY WAY","lat":21.286461,"lon":-157.719278,"sequence":69},{"id":"3110","code":"3110","name":"KAWAIHAE ST + MILOLII PL","lat":21.288444,"lon":-157.718822,"sequence":70},{"id":"3111","code":"3111","name":"KAWAIHAE ST + KEOKEA PL","lat":21.290081,"lon":-157.718316,"sequence":71},{"id":"3112","code":"3112","name":"KAWAIHAE ST + AWINI PL","lat":21.291432,"lon":-157.717546,"sequence":72},{"id":"3113","code":"3113","name":"KAWAIHAE ST + OPP KAALAKEI ST","lat":21.292608,"lon":-157.7162,"sequence":73},{"id":"3114","code":"3114","name":"KAWAIHAE ST + 469","lat":21.291577,"lon":-157.71504,"sequence":74},{"id":"3115","code":"3115","name":"KAWAIHAE ST + HAKALAU PL","lat":21.289158,"lon":-157.714753,"sequence":75},{"id":"3116","code":"3116","name":"HAWAII KAI DR + OOKALA PL","lat":21.289112,"lon":-157.713239,"sequence":76},{"id":"3117","code":"3117","name":"HAWAII KAI DR + OPIHIKAO PL","lat":21.289892,"lon":-157.712199,"sequence":77},{"id":"3691","code":"3691","name":"HAWAII KAI DR + KUMUKAHI PL","lat":21.293787,"lon":-157.709445,"sequence":78},{"id":"3132","code":"3132","name":"HAWAII KAI DR + OPP HAHAIONE ST","lat":21.293383,"lon":-157.708092,"sequence":79},{"id":"3133","code":"3133","name":"HAWAII KAI DR + HAPUNA PL","lat":21.291144,"lon":-157.707493,"sequence":80},{"id":"3134","code":"3134","name":"HAWAII KAI DR + AINAHOU ST","lat":21.287417,"lon":-157.706162,"sequence":81},{"id":"3135","code":"3135","name":"KEAHOLE ST + OPP HAWAII KAI SHOPPING CENTER","lat":21.285977,"lon":-157.707473,"sequence":82},{"id":"3136","code":"3136","name":"KEAHOLE ST + OPP HAWAII KAI TOWNE CENTER","lat":21.284353,"lon":-157.711339,"sequence":83},{"id":"3137","code":"3137","name":"KEAHOLE ST + HAWAII KAI PARK & RIDE","lat":21.283986,"lon":-157.712851,"sequence":84},{"id":"271","code":"271","name":"KALANIANAOLE HWY + OPP KEAHOLE ST","lat":21.282774,"lon":-157.714934,"sequence":85},{"id":"272","code":"272","name":"KALANIANAOLE HWY + 6999","lat":21.2803,"lon":-157.710043,"sequence":86},{"id":"273","code":"273","name":"KALANIANAOLE HWY + PORTLOCK RD","lat":21.279291,"lon":-157.70884,"sequence":87},{"id":"1203","code":"1203","name":"LUNALILO HOME RD + KALANIANAOLE HWY","lat":21.276537,"lon":-157.704293,"sequence":88},{"id":"1204","code":"1204","name":"LUNALILO HOME RD + KAUMAKANI ST","lat":21.27784,"lon":-157.703406,"sequence":89},{"id":"1206","code":"1206","name":"LUNALILO HOME RD + ANAPALAU ST","lat":21.279534,"lon":-157.70213,"sequence":90},{"id":"1208","code":"1208","name":"LUNALILO HOME RD + KAUMAKANI ST","lat":21.282543,"lon":-157.700025,"sequence":91},{"id":"1209","code":"1209","name":"LUNALILO HOME RD + KALAKUA ST","lat":21.28403,"lon":-157.698993,"sequence":92},{"id":"1210","code":"1210","name":"LUNALILO HOME RD + KAISER HIGH SCHOOL","lat":21.285977,"lon":-157.697703,"sequence":93},{"id":"1211","code":"1211","name":"LUNALILO HOME RD + KAPAIA ST","lat":21.287059,"lon":-157.69714,"sequence":94},{"id":"1213","code":"1213","name":"LUNALILO HOME RD + OPP KALANIPUU ST","lat":21.290387,"lon":-157.695053,"sequence":95},{"id":"1214","code":"1214","name":"LUNALILO HOME RD + AHUKINI ST","lat":21.291722,"lon":-157.693693,"sequence":96},{"id":"1216","code":"1216","name":"LUNALILO HOME RD + KALANIPUU ST","lat":21.294382,"lon":-157.690947,"sequence":97},{"id":"3145","code":"3145","name":"LUNALILO HOME RD + HAWAII KAI DR","lat":21.296658,"lon":-157.688562,"sequence":98},{"id":"3146","code":"3146","name":"LUNALILO HOME RD + KIPU PL","lat":21.297837,"lon":-157.687705,"sequence":99},{"id":"3147","code":"3147","name":"LUNALILO HOME RD + OPAEKAA ST","lat":21.299386,"lon":-157.686594,"sequence":100},{"id":"3148","code":"3148","name":"LUNALILO HOME RD + WAINIHA ST","lat":21.301254,"lon":-157.68593,"sequence":101},{"id":"3149","code":"3149","name":"LUNALILO HOME RD + ELEELE PL","lat":21.302655,"lon":-157.684745,"sequence":102},{"id":"3150","code":"3150","name":"LUNALILO HOME RD + KALAPAKI ST","lat":21.304207,"lon":-157.684474,"sequence":103},{"id":"3151","code":"3151","name":"LUNALILO HOME RD + OPP WAINIHA ST","lat":21.306168,"lon":-157.684437,"sequence":104},{"id":"3152","code":"3152","name":"LUNALILO HOME RD + OPP KOLOKOLO ST","lat":21.307187,"lon":-157.683928,"sequence":105},{"id":"3223","code":"3223","name":"LUNALILO HOME RD + 1344","lat":21.310028,"lon":-157.684839,"sequence":106},{"id":"3224","code":"3224","name":"LUNALILO HOME RD + 1232","lat":21.311428,"lon":-157.683342,"sequence":107},{"id":"3225","code":"3225","name":"LUNALILO HOME RD + KAIAMA PL","lat":21.309393,"lon":-157.683351,"sequence":108},{"id":"3226","code":"3226","name":"LUNALILO HOME RD + KOLOKOLO ST","lat":21.307567,"lon":-157.683817,"sequence":109},{"id":"3227","code":"3227","name":"LUNALILO HOME RD + WAINIHA ST","lat":21.306103,"lon":-157.684519,"sequence":110},{"id":"3228","code":"3228","name":"LUNALILO HOME RD + OPP KALAPAKI ST","lat":21.304237,"lon":-157.684539,"sequence":111},{"id":"3229","code":"3229","name":"LUNALILO HOME RD + OPP ELEELE PL","lat":21.302606,"lon":-157.684828,"sequence":112},{"id":"3230","code":"3230","name":"LUNALILO HOME RD + WAINIHA ST","lat":21.301271,"lon":-157.685992,"sequence":113},{"id":"3231","code":"3231","name":"LUNALILO HOME RD + OPP OPAEKAA ST","lat":21.299572,"lon":-157.686569,"sequence":114},{"id":"3232","code":"3232","name":"LUNALILO HOME RD + OPP KIPU PL","lat":21.297821,"lon":-157.687799,"sequence":115},{"id":"1189","code":"1189","name":"LUNALILO HOME RD + HAWAII KAI DR","lat":21.296064,"lon":-157.689109,"sequence":116}],"10569":[{"id":"3154","code":"3154","name":"MALIA ST + KILAUEA AVE","lat":21.280449,"lon":-157.783846,"sequence":1},{"id":"3156","code":"3156","name":"MALIA ST + AINAKOA AVE","lat":21.280293,"lon":-157.779498,"sequence":2},{"id":"3157","code":"3157","name":"AINAKOA AVE + ALIIKOA ST","lat":21.278663,"lon":-157.779626,"sequence":3},{"id":"217","code":"217","name":"KALANIANAOLE HWY + AINAKOA AVE","lat":21.278285,"lon":-157.781436,"sequence":4},{"id":"3165","code":"3165","name":"WAIALAE AVE + KILAUEA AVE","lat":21.278558,"lon":-157.78507,"sequence":5},{"id":"3166","code":"3166","name":"WAIALAE AVE + HUNAKAI ST","lat":21.27883,"lon":-157.787913,"sequence":6},{"id":"3169","code":"3169","name":"WAIALAE AVE + 16TH AVE","lat":21.280193,"lon":-157.794069,"sequence":7},{"id":"3171","code":"3171","name":"WAIALAE AVE + 14TH AVE","lat":21.281295,"lon":-157.796158,"sequence":8},{"id":"3173","code":"3173","name":"WAIALAE AVE + KOKO HEAD AVE","lat":21.282326,"lon":-157.798138,"sequence":9},{"id":"3174","code":"3174","name":"WAIALAE AVE + SIERRA DR","lat":21.283201,"lon":-157.79986,"sequence":10},{"id":"3176","code":"3176","name":"WAIALAE AVE + 9TH AVE","lat":21.284476,"lon":-157.802366,"sequence":11},{"id":"3177","code":"3177","name":"WAIALAE AVE + 7TH AVE","lat":21.28579,"lon":-157.804966,"sequence":12},{"id":"3057","code":"3057","name":"WAIALAE AVE + PALOLO AVE","lat":21.286877,"lon":-157.807085,"sequence":13},{"id":"3179","code":"3179","name":"WAIALAE AVE + 3RD AVE","lat":21.287937,"lon":-157.809165,"sequence":14},{"id":"3045","code":"3045","name":"WAIALAE AVE + ST LOUIS DR","lat":21.288961,"lon":-157.811178,"sequence":15},{"id":"2104","code":"2104","name":"WAIALAE AVE + OPP KAPIOLANI BL","lat":21.289452,"lon":-157.813601,"sequence":16},{"id":"2105","code":"2105","name":"WAIALAE AVE + S KING ST","lat":21.290199,"lon":-157.818236,"sequence":17},{"id":"2107","code":"2107","name":"S KING ST + UNIVERSITY AVE","lat":21.29161,"lon":-157.821266,"sequence":18},{"id":"810","code":"810","name":"S BERETANIA ST + KAIALIU ST","lat":21.293083,"lon":-157.823295,"sequence":19},{"id":"811","code":"811","name":"S BERETANIA ST + ISENBERG ST","lat":21.29473,"lon":-157.824636,"sequence":20},{"id":"813","code":"813","name":"S BERETANIA ST + MCCULLY ST","lat":21.296429,"lon":-157.828962,"sequence":21},{"id":"814","code":"814","name":"S BERETANIA ST + ARTESIAN ST","lat":21.297411,"lon":-157.831628,"sequence":22},{"id":"816","code":"816","name":"S BERETANIA ST + PUNAHOU ST","lat":21.298437,"lon":-157.834512,"sequence":23},{"id":"38","code":"38","name":"S BERETANIA ST + OPP KALAKAUA AVE","lat":21.299544,"lon":-157.837549,"sequence":24},{"id":"39","code":"39","name":"S BERETANIA ST + KEEAUMOKU ST","lat":21.300116,"lon":-157.839146,"sequence":25},{"id":"40","code":"40","name":"S BERETANIA ST + PIIKOI ST","lat":21.300937,"lon":-157.841382,"sequence":26},{"id":"41","code":"41","name":"S BERETANIA ST + PENSACOLA ST","lat":21.302221,"lon":-157.844905,"sequence":27},{"id":"43","code":"43","name":"S BERETANIA ST + WARD AVE","lat":21.303833,"lon":-157.849322,"sequence":28},{"id":"44","code":"44","name":"S BERETANIA ST + ALAPAI ST","lat":21.305022,"lon":-157.852567,"sequence":29},{"id":"45","code":"45","name":"S BERETANIA ST + PUNCHBOWL ST","lat":21.307244,"lon":-157.856142,"sequence":30},{"id":"46","code":"46","name":"S HOTEL ST + ALAKEA ST","lat":21.308713,"lon":-157.859373,"sequence":31},{"id":"47","code":"47","name":"S HOTEL ST + BISHOP ST","lat":21.309495,"lon":-157.860523,"sequence":32},{"id":"48","code":"48","name":"S HOTEL ST + BETHEL ST","lat":21.310442,"lon":-157.861494,"sequence":33},{"id":"50","code":"50","name":"N HOTEL ST + KEKAULIKE ST","lat":21.312891,"lon":-157.863177,"sequence":34},{"id":"52","code":"52","name":"N KING ST + N BERETANIA ST","lat":21.315949,"lon":-157.8642,"sequence":35},{"id":"987","code":"987","name":"N KING ST + LILIHA ST","lat":21.318791,"lon":-157.864932,"sequence":36},{"id":"3158","code":"3158","name":"N KING ST + PUA LN","lat":21.32033,"lon":-157.866082,"sequence":37},{"id":"1018","code":"1018","name":"N KING ST + PALAMA ST","lat":21.321873,"lon":-157.867204,"sequence":38},{"id":"988","code":"988","name":"N KING ST + KOKEA ST","lat":21.324574,"lon":-157.86865,"sequence":39},{"id":"3160","code":"3160","name":"N KING ST + KOHOU ST","lat":21.325301,"lon":-157.869072,"sequence":40},{"id":"3161","code":"3161","name":"N KING ST + HOUGHTAILING ST","lat":21.328221,"lon":-157.87113,"sequence":41},{"id":"3162","code":"3162","name":"N KING ST + OPP HAKA DR","lat":21.32973,"lon":-157.873159,"sequence":42},{"id":"989","code":"989","name":"N KING ST + KALIHI ST","lat":21.330782,"lon":-157.875033,"sequence":43},{"id":"3163","code":"3163","name":"N KING ST + OPP MOKAUEA ST","lat":21.331985,"lon":-157.877726,"sequence":44},{"id":"990","code":"990","name":"N KING ST + GULICK AVE","lat":21.333332,"lon":-157.879068,"sequence":45},{"id":"1020","code":"1020","name":"N KING ST + OPP UMI ST","lat":21.33504,"lon":-157.88098,"sequence":46},{"id":"4523","code":"4523","name":"KALIHI TRANSIT CENTER","lat":21.334465,"lon":-157.887741,"sequence":47}],"10562":[{"id":"3154","code":"3154","name":"MALIA ST + KILAUEA AVE","lat":21.280449,"lon":-157.783846,"sequence":1},{"id":"3156","code":"3156","name":"MALIA ST + AINAKOA AVE","lat":21.280293,"lon":-157.779498,"sequence":2},{"id":"3157","code":"3157","name":"AINAKOA AVE + ALIIKOA ST","lat":21.278663,"lon":-157.779626,"sequence":3},{"id":"217","code":"217","name":"KALANIANAOLE HWY + AINAKOA AVE","lat":21.278285,"lon":-157.781436,"sequence":4},{"id":"3165","code":"3165","name":"WAIALAE AVE + KILAUEA AVE","lat":21.278558,"lon":-157.78507,"sequence":5},{"id":"3166","code":"3166","name":"WAIALAE AVE + HUNAKAI ST","lat":21.27883,"lon":-157.787913,"sequence":6},{"id":"3169","code":"3169","name":"WAIALAE AVE + 16TH AVE","lat":21.280193,"lon":-157.794069,"sequence":7},{"id":"3171","code":"3171","name":"WAIALAE AVE + 14TH AVE","lat":21.281295,"lon":-157.796158,"sequence":8},{"id":"3173","code":"3173","name":"WAIALAE AVE + KOKO HEAD AVE","lat":21.282326,"lon":-157.798138,"sequence":9},{"id":"3174","code":"3174","name":"WAIALAE AVE + SIERRA DR","lat":21.283201,"lon":-157.79986,"sequence":10},{"id":"3176","code":"3176","name":"WAIALAE AVE + 9TH AVE","lat":21.284476,"lon":-157.802366,"sequence":11},{"id":"3177","code":"3177","name":"WAIALAE AVE + 7TH AVE","lat":21.28579,"lon":-157.804966,"sequence":12},{"id":"3057","code":"3057","name":"WAIALAE AVE + PALOLO AVE","lat":21.286877,"lon":-157.807085,"sequence":13},{"id":"3179","code":"3179","name":"WAIALAE AVE + 3RD AVE","lat":21.287937,"lon":-157.809165,"sequence":14},{"id":"3045","code":"3045","name":"WAIALAE AVE + ST LOUIS DR","lat":21.288961,"lon":-157.811178,"sequence":15},{"id":"2104","code":"2104","name":"WAIALAE AVE + OPP KAPIOLANI BL","lat":21.289452,"lon":-157.813601,"sequence":16},{"id":"2105","code":"2105","name":"WAIALAE AVE + S KING ST","lat":21.290199,"lon":-157.818236,"sequence":17},{"id":"2107","code":"2107","name":"S KING ST + UNIVERSITY AVE","lat":21.29161,"lon":-157.821266,"sequence":18},{"id":"810","code":"810","name":"S BERETANIA ST + KAIALIU ST","lat":21.293083,"lon":-157.823295,"sequence":19},{"id":"811","code":"811","name":"S BERETANIA ST + ISENBERG ST","lat":21.29473,"lon":-157.824636,"sequence":20},{"id":"813","code":"813","name":"S BERETANIA ST + MCCULLY ST","lat":21.296429,"lon":-157.828962,"sequence":21},{"id":"814","code":"814","name":"S BERETANIA ST + ARTESIAN ST","lat":21.297411,"lon":-157.831628,"sequence":22},{"id":"816","code":"816","name":"S BERETANIA ST + PUNAHOU ST","lat":21.298437,"lon":-157.834512,"sequence":23},{"id":"38","code":"38","name":"S BERETANIA ST + OPP KALAKAUA AVE","lat":21.299544,"lon":-157.837549,"sequence":24},{"id":"39","code":"39","name":"S BERETANIA ST + KEEAUMOKU ST","lat":21.300116,"lon":-157.839146,"sequence":25},{"id":"40","code":"40","name":"S BERETANIA ST + PIIKOI ST","lat":21.300937,"lon":-157.841382,"sequence":26},{"id":"41","code":"41","name":"S BERETANIA ST + PENSACOLA ST","lat":21.302221,"lon":-157.844905,"sequence":27},{"id":"43","code":"43","name":"S BERETANIA ST + WARD AVE","lat":21.303833,"lon":-157.849322,"sequence":28},{"id":"44","code":"44","name":"S BERETANIA ST + ALAPAI ST","lat":21.305022,"lon":-157.852567,"sequence":29},{"id":"45","code":"45","name":"S BERETANIA ST + PUNCHBOWL ST","lat":21.307244,"lon":-157.856142,"sequence":30},{"id":"46","code":"46","name":"S HOTEL ST + ALAKEA ST","lat":21.308713,"lon":-157.859373,"sequence":31},{"id":"47","code":"47","name":"S HOTEL ST + BISHOP ST","lat":21.309495,"lon":-157.860523,"sequence":32},{"id":"48","code":"48","name":"S HOTEL ST + BETHEL ST","lat":21.310442,"lon":-157.861494,"sequence":33},{"id":"50","code":"50","name":"N HOTEL ST + KEKAULIKE ST","lat":21.312891,"lon":-157.863177,"sequence":34},{"id":"52","code":"52","name":"N KING ST + N BERETANIA ST","lat":21.315949,"lon":-157.8642,"sequence":35},{"id":"987","code":"987","name":"N KING ST + LILIHA ST","lat":21.318791,"lon":-157.864932,"sequence":36},{"id":"3158","code":"3158","name":"N KING ST + PUA LN","lat":21.32033,"lon":-157.866082,"sequence":37},{"id":"1018","code":"1018","name":"N KING ST + PALAMA ST","lat":21.321873,"lon":-157.867204,"sequence":38},{"id":"988","code":"988","name":"N KING ST + KOKEA ST","lat":21.324574,"lon":-157.86865,"sequence":39},{"id":"3160","code":"3160","name":"N KING ST + KOHOU ST","lat":21.325301,"lon":-157.869072,"sequence":40},{"id":"3161","code":"3161","name":"N KING ST + HOUGHTAILING ST","lat":21.328221,"lon":-157.87113,"sequence":41},{"id":"3162","code":"3162","name":"N KING ST + OPP HAKA DR","lat":21.32973,"lon":-157.873159,"sequence":42},{"id":"989","code":"989","name":"N KING ST + KALIHI ST","lat":21.330782,"lon":-157.875033,"sequence":43},{"id":"3163","code":"3163","name":"N KING ST + OPP MOKAUEA ST","lat":21.331985,"lon":-157.877726,"sequence":44},{"id":"990","code":"990","name":"N KING ST + GULICK AVE","lat":21.333332,"lon":-157.879068,"sequence":45},{"id":"1020","code":"1020","name":"N KING ST + OPP UMI ST","lat":21.33504,"lon":-157.88098,"sequence":46},{"id":"4523","code":"4523","name":"KALIHI TRANSIT CENTER","lat":21.334465,"lon":-157.887741,"sequence":47}],"10564":[{"id":"3152","code":"3152","name":"LUNALILO HOME RD + OPP KOLOKOLO ST","lat":21.307187,"lon":-157.683928,"sequence":1},{"id":"3223","code":"3223","name":"LUNALILO HOME RD + 1344","lat":21.310028,"lon":-157.684839,"sequence":2},{"id":"3224","code":"3224","name":"LUNALILO HOME RD + 1232","lat":21.311428,"lon":-157.683342,"sequence":3},{"id":"3225","code":"3225","name":"LUNALILO HOME RD + KAIAMA PL","lat":21.309393,"lon":-157.683351,"sequence":4},{"id":"3226","code":"3226","name":"LUNALILO HOME RD + KOLOKOLO ST","lat":21.307567,"lon":-157.683817,"sequence":5},{"id":"3227","code":"3227","name":"LUNALILO HOME RD + WAINIHA ST","lat":21.306103,"lon":-157.684519,"sequence":6},{"id":"3228","code":"3228","name":"LUNALILO HOME RD + OPP KALAPAKI ST","lat":21.304237,"lon":-157.684539,"sequence":7},{"id":"3229","code":"3229","name":"LUNALILO HOME RD + OPP ELEELE PL","lat":21.302606,"lon":-157.684828,"sequence":8},{"id":"3230","code":"3230","name":"LUNALILO HOME RD + WAINIHA ST","lat":21.301271,"lon":-157.685992,"sequence":9},{"id":"3231","code":"3231","name":"LUNALILO HOME RD + OPP OPAEKAA ST","lat":21.299572,"lon":-157.686569,"sequence":10},{"id":"3232","code":"3232","name":"LUNALILO HOME RD + OPP KIPU PL","lat":21.297821,"lon":-157.687799,"sequence":11},{"id":"1189","code":"1189","name":"LUNALILO HOME RD + HAWAII KAI DR","lat":21.296064,"lon":-157.689109,"sequence":12},{"id":"1190","code":"1190","name":"LUNALILO HOME RD + 780","lat":21.294834,"lon":-157.690516,"sequence":13},{"id":"1191","code":"1191","name":"LUNALILO HOME RD + OPP KALANIPUU ST","lat":21.293793,"lon":-157.691771,"sequence":14},{"id":"1192","code":"1192","name":"LUNALILO HOME RD + KOAMANO ST","lat":21.292516,"lon":-157.692962,"sequence":15},{"id":"1193","code":"1193","name":"LUNALILO HOME RD + OPP AHUKINI ST","lat":21.291471,"lon":-157.694088,"sequence":16},{"id":"1194","code":"1194","name":"LUNALILO HOME RD + KALANIPUU ST","lat":21.290394,"lon":-157.695141,"sequence":17},{"id":"1195","code":"1195","name":"LUNALILO HOME RD + WAILUA ST","lat":21.288045,"lon":-157.696686,"sequence":18},{"id":"1196","code":"1196","name":"LUNALILO HOME RD + OPP KAPAIA ST","lat":21.286821,"lon":-157.697352,"sequence":19},{"id":"1197","code":"1197","name":"LUNALILO HOME RD + OPP KALAKUA ST","lat":21.28395,"lon":-157.699144,"sequence":20},{"id":"1198","code":"1198","name":"LUNALILO HOME RD + OPP KAUMAKANI ST","lat":21.283197,"lon":-157.699772,"sequence":21},{"id":"1199","code":"1199","name":"LUNALILO HOME RD + KAUMAKANI ST","lat":21.281803,"lon":-157.700766,"sequence":22},{"id":"1200","code":"1200","name":"LUNALILO HOME RD + OPP ANAPALAU ST","lat":21.279579,"lon":-157.702356,"sequence":23},{"id":"1201","code":"1201","name":"LUNALILO HOME RD + OPP KAUMAKANI","lat":21.277881,"lon":-157.703472,"sequence":24},{"id":"1202","code":"1202","name":"LUNALILO HOME RD + KALANIANAOLE HWY","lat":21.27637,"lon":-157.704615,"sequence":25},{"id":"192","code":"192","name":"KALANIANAOLE HWY + KOKO MARINA CTR","lat":21.277052,"lon":-157.706052,"sequence":26},{"id":"193","code":"193","name":"KALANIANAOLE HWY + OPP PORTLOCK RD","lat":21.279191,"lon":-157.708562,"sequence":27},{"id":"195","code":"195","name":"KALANIANAOLE HWY + HAWAII KAI TOWNE CENTER","lat":21.282266,"lon":-157.713402,"sequence":28},{"id":"196","code":"196","name":"KALANIANAOLE HWY + KEAHOLE ST","lat":21.283027,"lon":-157.714985,"sequence":29},{"id":"4430","code":"4430","name":"HAWAII KAI PARK & RIDE","lat":21.284179,"lon":-157.712801,"sequence":30},{"id":"3698","code":"3698","name":"KEAHOLE ST + HAWAII KAI SHOPPING CENTER","lat":21.285992,"lon":-157.707284,"sequence":31},{"id":"3190","code":"3190","name":"HAWAII KAI DR + OPP AINAHOU ST","lat":21.287568,"lon":-157.70617,"sequence":32},{"id":"3191","code":"3191","name":"HAWAII KAI DR + OPP HAPUNA PL","lat":21.290961,"lon":-157.707373,"sequence":33},{"id":"3192","code":"3192","name":"HAWAII KAI DR + HAHAIONE ST","lat":21.293557,"lon":-157.708181,"sequence":34},{"id":"4284","code":"4284","name":"HAWAII KAI DR + PEPEEKEO ST","lat":21.293654,"lon":-157.710379,"sequence":35},{"id":"3207","code":"3207","name":"HAWAII KAI DR + OPP OPIHIKAO PL","lat":21.289957,"lon":-157.712214,"sequence":36},{"id":"3208","code":"3208","name":"HAWAII KAI DR + KAWAIHAE ST","lat":21.288601,"lon":-157.713892,"sequence":37},{"id":"3209","code":"3209","name":"KAWAIHAE ST + OPP HAKALAU PL","lat":21.289378,"lon":-157.714786,"sequence":38},{"id":"3210","code":"3210","name":"KAWAIHAE ST + 464","lat":21.291643,"lon":-157.714991,"sequence":39},{"id":"3211","code":"3211","name":"KAWAIHAE ST + KAALAKEI ST","lat":21.292686,"lon":-157.716213,"sequence":40},{"id":"3212","code":"3212","name":"KAWAIHAE ST + OPP AWINI PL","lat":21.291505,"lon":-157.71762,"sequence":41},{"id":"3213","code":"3213","name":"KAWAIHAE ST + OPP KEOKEA PL","lat":21.29023,"lon":-157.718336,"sequence":42},{"id":"3214","code":"3214","name":"KAWAIHAE ST + OPP KAWAIHAE PL","lat":21.288473,"lon":-157.718921,"sequence":43},{"id":"3215","code":"3215","name":"KAWAIHAE ST + MAY WAY","lat":21.286656,"lon":-157.719322,"sequence":44},{"id":"199","code":"199","name":"KALANIANAOLE HWY + KULIOUOU RD","lat":21.286164,"lon":-157.722968,"sequence":45},{"id":"200","code":"200","name":"KALANIANAOLE HWY + ELELUPE RD","lat":21.285742,"lon":-157.724666,"sequence":46},{"id":"201","code":"201","name":"KALANIANAOLE HWY + OPP PAIKO DR","lat":21.283065,"lon":-157.730463,"sequence":47},{"id":"202","code":"202","name":"KALANIANAOLE HWY + E HALEMAUMAU ST","lat":21.282163,"lon":-157.734589,"sequence":48},{"id":"203","code":"203","name":"KALANIANAOLE HWY + W HALEMAUMAU ST","lat":21.280932,"lon":-157.7392,"sequence":49},{"id":"204","code":"204","name":"KALANIANAOLE HWY + HAWAII LOA ST","lat":21.280511,"lon":-157.742727,"sequence":50},{"id":"205","code":"205","name":"KALANIANAOLE HWY + PUUIKENA DR","lat":21.280081,"lon":-157.744509,"sequence":51},{"id":"206","code":"206","name":"KALANIANAOLE HWY + E HIND DR","lat":21.278852,"lon":-157.74936,"sequence":52},{"id":"3181","code":"3181","name":"E HIND DR + LIMU PL","lat":21.281713,"lon":-157.750809,"sequence":53},{"id":"3182","code":"3182","name":"E HIND DR + UHIUHI ST","lat":21.283911,"lon":-157.751817,"sequence":54},{"id":"3183","code":"3183","name":"E HIND DR + HIND IUKA DR","lat":21.285012,"lon":-157.752381,"sequence":55},{"id":"3184","code":"3184","name":"W HIND DR + KIHOLO ST","lat":21.284684,"lon":-157.754509,"sequence":56},{"id":"3185","code":"3185","name":"W HIND DR + NOHU ST","lat":21.282431,"lon":-157.755881,"sequence":57},{"id":"3186","code":"3186","name":"W HIND DR + OPP NENUE ST","lat":21.280278,"lon":-157.755687,"sequence":58},{"id":"3187","code":"3187","name":"W HIND DR + KALANIANAOLE HWY","lat":21.278344,"lon":-157.755366,"sequence":59},{"id":"209","code":"209","name":"KALANIANAOLE HWY + OPP WAILUPE CIR","lat":21.277241,"lon":-157.758028,"sequence":60},{"id":"211","code":"211","name":"KALANIANAOLE HWY + WAA ST","lat":21.276329,"lon":-157.763831,"sequence":61},{"id":"212","code":"212","name":"KALANIANAOLE HWY + ANALII ST","lat":21.276245,"lon":-157.767582,"sequence":62},{"id":"213","code":"213","name":"KALANIANAOLE HWY + WAIALAE IKI PARK","lat":21.276749,"lon":-157.770371,"sequence":63},{"id":"214","code":"214","name":"KALANIANAOLE HWY + LAUKAHI ST","lat":21.27709,"lon":-157.772304,"sequence":64},{"id":"215","code":"215","name":"KALANIANAOLE HWY + KALANI HIGH SCHOOL","lat":21.277453,"lon":-157.77472,"sequence":65},{"id":"216","code":"216","name":"KALANIANAOLE HWY + KALANIIKI ST","lat":21.277628,"lon":-157.776411,"sequence":66},{"id":"217","code":"217","name":"KALANIANAOLE HWY + AINAKOA AVE","lat":21.278285,"lon":-157.781436,"sequence":67},{"id":"3165","code":"3165","name":"WAIALAE AVE + KILAUEA AVE","lat":21.278558,"lon":-157.78507,"sequence":68},{"id":"3166","code":"3166","name":"WAIALAE AVE + HUNAKAI ST","lat":21.27883,"lon":-157.787913,"sequence":69},{"id":"3169","code":"3169","name":"WAIALAE AVE + 16TH AVE","lat":21.280193,"lon":-157.794069,"sequence":70},{"id":"3171","code":"3171","name":"WAIALAE AVE + 14TH AVE","lat":21.281295,"lon":-157.796158,"sequence":71},{"id":"3173","code":"3173","name":"WAIALAE AVE + KOKO HEAD AVE","lat":21.282326,"lon":-157.798138,"sequence":72},{"id":"3174","code":"3174","name":"WAIALAE AVE + SIERRA DR","lat":21.283201,"lon":-157.79986,"sequence":73},{"id":"3176","code":"3176","name":"WAIALAE AVE + 9TH AVE","lat":21.284476,"lon":-157.802366,"sequence":74},{"id":"3177","code":"3177","name":"WAIALAE AVE + 7TH AVE","lat":21.28579,"lon":-157.804966,"sequence":75},{"id":"3057","code":"3057","name":"WAIALAE AVE + PALOLO AVE","lat":21.286877,"lon":-157.807085,"sequence":76},{"id":"3179","code":"3179","name":"WAIALAE AVE + 3RD AVE","lat":21.287937,"lon":-157.809165,"sequence":77},{"id":"3045","code":"3045","name":"WAIALAE AVE + ST LOUIS DR","lat":21.288961,"lon":-157.811178,"sequence":78},{"id":"2104","code":"2104","name":"WAIALAE AVE + OPP KAPIOLANI BL","lat":21.289452,"lon":-157.813601,"sequence":79},{"id":"2105","code":"2105","name":"WAIALAE AVE + S KING ST","lat":21.290199,"lon":-157.818236,"sequence":80},{"id":"2107","code":"2107","name":"S KING ST + UNIVERSITY AVE","lat":21.29161,"lon":-157.821266,"sequence":81},{"id":"810","code":"810","name":"S BERETANIA ST + KAIALIU ST","lat":21.293083,"lon":-157.823295,"sequence":82},{"id":"811","code":"811","name":"S BERETANIA ST + ISENBERG ST","lat":21.29473,"lon":-157.824636,"sequence":83},{"id":"813","code":"813","name":"S BERETANIA ST + MCCULLY ST","lat":21.296429,"lon":-157.828962,"sequence":84},{"id":"814","code":"814","name":"S BERETANIA ST + ARTESIAN ST","lat":21.297411,"lon":-157.831628,"sequence":85},{"id":"816","code":"816","name":"S BERETANIA ST + PUNAHOU ST","lat":21.298437,"lon":-157.834512,"sequence":86},{"id":"38","code":"38","name":"S BERETANIA ST + OPP KALAKAUA AVE","lat":21.299544,"lon":-157.837549,"sequence":87},{"id":"39","code":"39","name":"S BERETANIA ST + KEEAUMOKU ST","lat":21.300116,"lon":-157.839146,"sequence":88},{"id":"40","code":"40","name":"S BERETANIA ST + PIIKOI ST","lat":21.300937,"lon":-157.841382,"sequence":89},{"id":"41","code":"41","name":"S BERETANIA ST + PENSACOLA ST","lat":21.302221,"lon":-157.844905,"sequence":90},{"id":"43","code":"43","name":"S BERETANIA ST + WARD AVE","lat":21.303833,"lon":-157.849322,"sequence":91},{"id":"44","code":"44","name":"S BERETANIA ST + ALAPAI ST","lat":21.305022,"lon":-157.852567,"sequence":92},{"id":"45","code":"45","name":"S BERETANIA ST + PUNCHBOWL ST","lat":21.307244,"lon":-157.856142,"sequence":93},{"id":"46","code":"46","name":"S HOTEL ST + ALAKEA ST","lat":21.308713,"lon":-157.859373,"sequence":94},{"id":"47","code":"47","name":"S HOTEL ST + BISHOP ST","lat":21.309495,"lon":-157.860523,"sequence":95},{"id":"48","code":"48","name":"S HOTEL ST + BETHEL ST","lat":21.310442,"lon":-157.861494,"sequence":96},{"id":"50","code":"50","name":"N HOTEL ST + KEKAULIKE ST","lat":21.312891,"lon":-157.863177,"sequence":97},{"id":"52","code":"52","name":"N KING ST + N BERETANIA ST","lat":21.315949,"lon":-157.8642,"sequence":98},{"id":"987","code":"987","name":"N KING ST + LILIHA ST","lat":21.318791,"lon":-157.864932,"sequence":99},{"id":"3158","code":"3158","name":"N KING ST + PUA LN","lat":21.32033,"lon":-157.866082,"sequence":100},{"id":"1018","code":"1018","name":"N KING ST + PALAMA ST","lat":21.321873,"lon":-157.867204,"sequence":101},{"id":"988","code":"988","name":"N KING ST + KOKEA ST","lat":21.324574,"lon":-157.86865,"sequence":102},{"id":"3160","code":"3160","name":"N KING ST + KOHOU ST","lat":21.325301,"lon":-157.869072,"sequence":103},{"id":"3161","code":"3161","name":"N KING ST + HOUGHTAILING ST","lat":21.328221,"lon":-157.87113,"sequence":104},{"id":"3162","code":"3162","name":"N KING ST + OPP HAKA DR","lat":21.32973,"lon":-157.873159,"sequence":105},{"id":"989","code":"989","name":"N KING ST + KALIHI ST","lat":21.330782,"lon":-157.875033,"sequence":106},{"id":"3163","code":"3163","name":"N KING ST + OPP MOKAUEA ST","lat":21.331985,"lon":-157.877726,"sequence":107},{"id":"990","code":"990","name":"N KING ST + GULICK AVE","lat":21.333332,"lon":-157.879068,"sequence":108},{"id":"1020","code":"1020","name":"N KING ST + OPP UMI ST","lat":21.33504,"lon":-157.88098,"sequence":109},{"id":"4523","code":"4523","name":"KALIHI TRANSIT CENTER","lat":21.334465,"lon":-157.887741,"sequence":110}],"10563":[{"id":"45","code":"45","name":"S BERETANIA ST + PUNCHBOWL ST","lat":21.307244,"lon":-157.856142,"sequence":1},{"id":"46","code":"46","name":"S HOTEL ST + ALAKEA ST","lat":21.308713,"lon":-157.859373,"sequence":2},{"id":"47","code":"47","name":"S HOTEL ST + BISHOP ST","lat":21.309495,"lon":-157.860523,"sequence":3},{"id":"48","code":"48","name":"S HOTEL ST + BETHEL ST","lat":21.310442,"lon":-157.861494,"sequence":4},{"id":"50","code":"50","name":"N HOTEL ST + KEKAULIKE ST","lat":21.312891,"lon":-157.863177,"sequence":5},{"id":"52","code":"52","name":"N KING ST + N BERETANIA ST","lat":21.315949,"lon":-157.8642,"sequence":6},{"id":"987","code":"987","name":"N KING ST + LILIHA ST","lat":21.318791,"lon":-157.864932,"sequence":7},{"id":"3158","code":"3158","name":"N KING ST + PUA LN","lat":21.32033,"lon":-157.866082,"sequence":8},{"id":"1018","code":"1018","name":"N KING ST + PALAMA ST","lat":21.321873,"lon":-157.867204,"sequence":9},{"id":"988","code":"988","name":"N KING ST + KOKEA ST","lat":21.324574,"lon":-157.86865,"sequence":10},{"id":"3160","code":"3160","name":"N KING ST + KOHOU ST","lat":21.325301,"lon":-157.869072,"sequence":11},{"id":"3161","code":"3161","name":"N KING ST + HOUGHTAILING ST","lat":21.328221,"lon":-157.87113,"sequence":12},{"id":"3162","code":"3162","name":"N KING ST + OPP HAKA DR","lat":21.32973,"lon":-157.873159,"sequence":13},{"id":"989","code":"989","name":"N KING ST + KALIHI ST","lat":21.330782,"lon":-157.875033,"sequence":14},{"id":"3163","code":"3163","name":"N KING ST + OPP MOKAUEA ST","lat":21.331985,"lon":-157.877726,"sequence":15},{"id":"990","code":"990","name":"N KING ST + GULICK AVE","lat":21.333332,"lon":-157.879068,"sequence":16},{"id":"1020","code":"1020","name":"N KING ST + OPP UMI ST","lat":21.33504,"lon":-157.88098,"sequence":17},{"id":"4523","code":"4523","name":"KALIHI TRANSIT CENTER","lat":21.334465,"lon":-157.887741,"sequence":18}],"10565":[{"id":"3153","code":"3153","name":"KILAUEA AVE + WAIALAE AVE","lat":21.278953,"lon":-157.784441,"sequence":1},{"id":"3154","code":"3154","name":"MALIA ST + KILAUEA AVE","lat":21.280449,"lon":-157.783846,"sequence":2},{"id":"3156","code":"3156","name":"MALIA ST + AINAKOA AVE","lat":21.280293,"lon":-157.779498,"sequence":3},{"id":"3157","code":"3157","name":"AINAKOA AVE + ALIIKOA ST","lat":21.278663,"lon":-157.779626,"sequence":4},{"id":"217","code":"217","name":"KALANIANAOLE HWY + AINAKOA AVE","lat":21.278285,"lon":-157.781436,"sequence":5},{"id":"3165","code":"3165","name":"WAIALAE AVE + KILAUEA AVE","lat":21.278558,"lon":-157.78507,"sequence":6},{"id":"3166","code":"3166","name":"WAIALAE AVE + HUNAKAI ST","lat":21.27883,"lon":-157.787913,"sequence":7},{"id":"3169","code":"3169","name":"WAIALAE AVE + 16TH AVE","lat":21.280193,"lon":-157.794069,"sequence":8},{"id":"3171","code":"3171","name":"WAIALAE AVE + 14TH AVE","lat":21.281295,"lon":-157.796158,"sequence":9},{"id":"3173","code":"3173","name":"WAIALAE AVE + KOKO HEAD AVE","lat":21.282326,"lon":-157.798138,"sequence":10},{"id":"3174","code":"3174","name":"WAIALAE AVE + SIERRA DR","lat":21.283201,"lon":-157.79986,"sequence":11},{"id":"3176","code":"3176","name":"WAIALAE AVE + 9TH AVE","lat":21.284476,"lon":-157.802366,"sequence":12},{"id":"3177","code":"3177","name":"WAIALAE AVE + 7TH AVE","lat":21.28579,"lon":-157.804966,"sequence":13},{"id":"3057","code":"3057","name":"WAIALAE AVE + PALOLO AVE","lat":21.286877,"lon":-157.807085,"sequence":14},{"id":"3179","code":"3179","name":"WAIALAE AVE + 3RD AVE","lat":21.287937,"lon":-157.809165,"sequence":15},{"id":"3045","code":"3045","name":"WAIALAE AVE + ST LOUIS DR","lat":21.288961,"lon":-157.811178,"sequence":16},{"id":"2104","code":"2104","name":"WAIALAE AVE + OPP KAPIOLANI BL","lat":21.289452,"lon":-157.813601,"sequence":17},{"id":"2105","code":"2105","name":"WAIALAE AVE + S KING ST","lat":21.290199,"lon":-157.818236,"sequence":18},{"id":"2107","code":"2107","name":"S KING ST + UNIVERSITY AVE","lat":21.29161,"lon":-157.821266,"sequence":19},{"id":"810","code":"810","name":"S BERETANIA ST + KAIALIU ST","lat":21.293083,"lon":-157.823295,"sequence":20},{"id":"811","code":"811","name":"S BERETANIA ST + ISENBERG ST","lat":21.29473,"lon":-157.824636,"sequence":21},{"id":"813","code":"813","name":"S BERETANIA ST + MCCULLY ST","lat":21.296429,"lon":-157.828962,"sequence":22},{"id":"814","code":"814","name":"S BERETANIA ST + ARTESIAN ST","lat":21.297411,"lon":-157.831628,"sequence":23},{"id":"816","code":"816","name":"S BERETANIA ST + PUNAHOU ST","lat":21.298437,"lon":-157.834512,"sequence":24},{"id":"38","code":"38","name":"S BERETANIA ST + OPP KALAKAUA AVE","lat":21.299544,"lon":-157.837549,"sequence":25},{"id":"39","code":"39","name":"S BERETANIA ST + KEEAUMOKU ST","lat":21.300116,"lon":-157.839146,"sequence":26},{"id":"40","code":"40","name":"S BERETANIA ST + PIIKOI ST","lat":21.300937,"lon":-157.841382,"sequence":27},{"id":"41","code":"41","name":"S BERETANIA ST + PENSACOLA ST","lat":21.302221,"lon":-157.844905,"sequence":28},{"id":"43","code":"43","name":"S BERETANIA ST + WARD AVE","lat":21.303833,"lon":-157.849322,"sequence":29},{"id":"44","code":"44","name":"S BERETANIA ST + ALAPAI ST","lat":21.305022,"lon":-157.852567,"sequence":30},{"id":"45","code":"45","name":"S BERETANIA ST + PUNCHBOWL ST","lat":21.307244,"lon":-157.856142,"sequence":31},{"id":"46","code":"46","name":"S HOTEL ST + ALAKEA ST","lat":21.308713,"lon":-157.859373,"sequence":32},{"id":"47","code":"47","name":"S HOTEL ST + BISHOP ST","lat":21.309495,"lon":-157.860523,"sequence":33},{"id":"48","code":"48","name":"S HOTEL ST + BETHEL ST","lat":21.310442,"lon":-157.861494,"sequence":34},{"id":"50","code":"50","name":"N HOTEL ST + KEKAULIKE ST","lat":21.312891,"lon":-157.863177,"sequence":35},{"id":"52","code":"52","name":"N KING ST + N BERETANIA ST","lat":21.315949,"lon":-157.8642,"sequence":36},{"id":"987","code":"987","name":"N KING ST + LILIHA ST","lat":21.318791,"lon":-157.864932,"sequence":37},{"id":"3158","code":"3158","name":"N KING ST + PUA LN","lat":21.32033,"lon":-157.866082,"sequence":38},{"id":"1018","code":"1018","name":"N KING ST + PALAMA ST","lat":21.321873,"lon":-157.867204,"sequence":39},{"id":"988","code":"988","name":"N KING ST + KOKEA ST","lat":21.324574,"lon":-157.86865,"sequence":40},{"id":"3160","code":"3160","name":"N KING ST + KOHOU ST","lat":21.325301,"lon":-157.869072,"sequence":41},{"id":"3161","code":"3161","name":"N KING ST + HOUGHTAILING ST","lat":21.328221,"lon":-157.87113,"sequence":42},{"id":"3162","code":"3162","name":"N KING ST + OPP HAKA DR","lat":21.32973,"lon":-157.873159,"sequence":43},{"id":"989","code":"989","name":"N KING ST + KALIHI ST","lat":21.330782,"lon":-157.875033,"sequence":44},{"id":"3163","code":"3163","name":"N KING ST + OPP MOKAUEA ST","lat":21.331985,"lon":-157.877726,"sequence":45},{"id":"990","code":"990","name":"N KING ST + GULICK AVE","lat":21.333332,"lon":-157.879068,"sequence":46},{"id":"1020","code":"1020","name":"N KING ST + OPP UMI ST","lat":21.33504,"lon":-157.88098,"sequence":47},{"id":"4523","code":"4523","name":"KALIHI TRANSIT CENTER","lat":21.334465,"lon":-157.887741,"sequence":48}],"10566":[{"id":"3174","code":"3174","name":"WAIALAE AVE + SIERRA DR","lat":21.283201,"lon":-157.79986,"sequence":1},{"id":"3176","code":"3176","name":"WAIALAE AVE + 9TH AVE","lat":21.284476,"lon":-157.802366,"sequence":2},{"id":"3177","code":"3177","name":"WAIALAE AVE + 7TH AVE","lat":21.28579,"lon":-157.804966,"sequence":3},{"id":"3057","code":"3057","name":"WAIALAE AVE + PALOLO AVE","lat":21.286877,"lon":-157.807085,"sequence":4},{"id":"3179","code":"3179","name":"WAIALAE AVE + 3RD AVE","lat":21.287937,"lon":-157.809165,"sequence":5},{"id":"3045","code":"3045","name":"WAIALAE AVE + ST LOUIS DR","lat":21.288961,"lon":-157.811178,"sequence":6},{"id":"2104","code":"2104","name":"WAIALAE AVE + OPP KAPIOLANI BL","lat":21.289452,"lon":-157.813601,"sequence":7},{"id":"2105","code":"2105","name":"WAIALAE AVE + S KING ST","lat":21.290199,"lon":-157.818236,"sequence":8},{"id":"2107","code":"2107","name":"S KING ST + UNIVERSITY AVE","lat":21.29161,"lon":-157.821266,"sequence":9},{"id":"810","code":"810","name":"S BERETANIA ST + KAIALIU ST","lat":21.293083,"lon":-157.823295,"sequence":10},{"id":"811","code":"811","name":"S BERETANIA ST + ISENBERG ST","lat":21.29473,"lon":-157.824636,"sequence":11},{"id":"813","code":"813","name":"S BERETANIA ST + MCCULLY ST","lat":21.296429,"lon":-157.828962,"sequence":12},{"id":"814","code":"814","name":"S BERETANIA ST + ARTESIAN ST","lat":21.297411,"lon":-157.831628,"sequence":13},{"id":"816","code":"816","name":"S BERETANIA ST + PUNAHOU ST","lat":21.298437,"lon":-157.834512,"sequence":14},{"id":"38","code":"38","name":"S BERETANIA ST + OPP KALAKAUA AVE","lat":21.299544,"lon":-157.837549,"sequence":15},{"id":"39","code":"39","name":"S BERETANIA ST + KEEAUMOKU ST","lat":21.300116,"lon":-157.839146,"sequence":16},{"id":"40","code":"40","name":"S BERETANIA ST + PIIKOI ST","lat":21.300937,"lon":-157.841382,"sequence":17},{"id":"41","code":"41","name":"S BERETANIA ST + PENSACOLA ST","lat":21.302221,"lon":-157.844905,"sequence":18},{"id":"43","code":"43","name":"S BERETANIA ST + WARD AVE","lat":21.303833,"lon":-157.849322,"sequence":19},{"id":"44","code":"44","name":"S BERETANIA ST + ALAPAI ST","lat":21.305022,"lon":-157.852567,"sequence":20},{"id":"45","code":"45","name":"S BERETANIA ST + PUNCHBOWL ST","lat":21.307244,"lon":-157.856142,"sequence":21},{"id":"46","code":"46","name":"S HOTEL ST + ALAKEA ST","lat":21.308713,"lon":-157.859373,"sequence":22},{"id":"47","code":"47","name":"S HOTEL ST + BISHOP ST","lat":21.309495,"lon":-157.860523,"sequence":23},{"id":"48","code":"48","name":"S HOTEL ST + BETHEL ST","lat":21.310442,"lon":-157.861494,"sequence":24},{"id":"50","code":"50","name":"N HOTEL ST + KEKAULIKE ST","lat":21.312891,"lon":-157.863177,"sequence":25},{"id":"52","code":"52","name":"N KING ST + N BERETANIA ST","lat":21.315949,"lon":-157.8642,"sequence":26},{"id":"987","code":"987","name":"N KING ST + LILIHA ST","lat":21.318791,"lon":-157.864932,"sequence":27},{"id":"3158","code":"3158","name":"N KING ST + PUA LN","lat":21.32033,"lon":-157.866082,"sequence":28},{"id":"1018","code":"1018","name":"N KING ST + PALAMA ST","lat":21.321873,"lon":-157.867204,"sequence":29},{"id":"988","code":"988","name":"N KING ST + KOKEA ST","lat":21.324574,"lon":-157.86865,"sequence":30},{"id":"3160","code":"3160","name":"N KING ST + KOHOU ST","lat":21.325301,"lon":-157.869072,"sequence":31},{"id":"3161","code":"3161","name":"N KING ST + HOUGHTAILING ST","lat":21.328221,"lon":-157.87113,"sequence":32},{"id":"3162","code":"3162","name":"N KING ST + OPP HAKA DR","lat":21.32973,"lon":-157.873159,"sequence":33},{"id":"989","code":"989","name":"N KING ST + KALIHI ST","lat":21.330782,"lon":-157.875033,"sequence":34},{"id":"3163","code":"3163","name":"N KING ST + OPP MOKAUEA ST","lat":21.331985,"lon":-157.877726,"sequence":35},{"id":"990","code":"990","name":"N KING ST + GULICK AVE","lat":21.333332,"lon":-157.879068,"sequence":36},{"id":"1020","code":"1020","name":"N KING ST + OPP UMI ST","lat":21.33504,"lon":-157.88098,"sequence":37},{"id":"4523","code":"4523","name":"KALIHI TRANSIT CENTER","lat":21.334465,"lon":-157.887741,"sequence":38}],"10570":[{"id":"38","code":"38","name":"S BERETANIA ST + OPP KALAKAUA AVE","lat":21.299544,"lon":-157.837549,"sequence":1},{"id":"39","code":"39","name":"S BERETANIA ST + KEEAUMOKU ST","lat":21.300116,"lon":-157.839146,"sequence":2},{"id":"40","code":"40","name":"S BERETANIA ST + PIIKOI ST","lat":21.300937,"lon":-157.841382,"sequence":3},{"id":"41","code":"41","name":"S BERETANIA ST + PENSACOLA ST","lat":21.302221,"lon":-157.844905,"sequence":4},{"id":"43","code":"43","name":"S BERETANIA ST + WARD AVE","lat":21.303833,"lon":-157.849322,"sequence":5},{"id":"44","code":"44","name":"S BERETANIA ST + ALAPAI ST","lat":21.305022,"lon":-157.852567,"sequence":6},{"id":"45","code":"45","name":"S BERETANIA ST + PUNCHBOWL ST","lat":21.307244,"lon":-157.856142,"sequence":7},{"id":"46","code":"46","name":"S HOTEL ST + ALAKEA ST","lat":21.308713,"lon":-157.859373,"sequence":8},{"id":"47","code":"47","name":"S HOTEL ST + BISHOP ST","lat":21.309495,"lon":-157.860523,"sequence":9},{"id":"48","code":"48","name":"S HOTEL ST + BETHEL ST","lat":21.310442,"lon":-157.861494,"sequence":10},{"id":"50","code":"50","name":"N HOTEL ST + KEKAULIKE ST","lat":21.312891,"lon":-157.863177,"sequence":11},{"id":"52","code":"52","name":"N KING ST + N BERETANIA ST","lat":21.315949,"lon":-157.8642,"sequence":12},{"id":"987","code":"987","name":"N KING ST + LILIHA ST","lat":21.318791,"lon":-157.864932,"sequence":13},{"id":"3158","code":"3158","name":"N KING ST + PUA LN","lat":21.32033,"lon":-157.866082,"sequence":14},{"id":"1018","code":"1018","name":"N KING ST + PALAMA ST","lat":21.321873,"lon":-157.867204,"sequence":15},{"id":"988","code":"988","name":"N KING ST + KOKEA ST","lat":21.324574,"lon":-157.86865,"sequence":16},{"id":"3160","code":"3160","name":"N KING ST + KOHOU ST","lat":21.325301,"lon":-157.869072,"sequence":17},{"id":"3161","code":"3161","name":"N KING ST + HOUGHTAILING ST","lat":21.328221,"lon":-157.87113,"sequence":18},{"id":"3162","code":"3162","name":"N KING ST + OPP HAKA DR","lat":21.32973,"lon":-157.873159,"sequence":19},{"id":"989","code":"989","name":"N KING ST + KALIHI ST","lat":21.330782,"lon":-157.875033,"sequence":20},{"id":"3163","code":"3163","name":"N KING ST + OPP MOKAUEA ST","lat":21.331985,"lon":-157.877726,"sequence":21},{"id":"990","code":"990","name":"N KING ST + GULICK AVE","lat":21.333332,"lon":-157.879068,"sequence":22},{"id":"1020","code":"1020","name":"N KING ST + OPP UMI ST","lat":21.33504,"lon":-157.88098,"sequence":23},{"id":"4523","code":"4523","name":"KALIHI TRANSIT CENTER","lat":21.334465,"lon":-157.887741,"sequence":24}],"10574":[{"id":"124","code":"124","name":"N KING ST + N BERETANIA ST","lat":21.316816,"lon":-157.864327,"sequence":1},{"id":"126","code":"126","name":"N HOTEL ST + MAUNAKEA ST","lat":21.312312,"lon":-157.862868,"sequence":2},{"id":"127","code":"127","name":"S HOTEL ST + BETHEL ST","lat":21.310586,"lon":-157.86167,"sequence":3},{"id":"128","code":"128","name":"S HOTEL ST + BISHOP ST","lat":21.309428,"lon":-157.860534,"sequence":4},{"id":"130","code":"130","name":"S HOTEL ST + RICHARDS ST","lat":21.308307,"lon":-157.858888,"sequence":5},{"id":"131","code":"131","name":"S KING ST + PUNCHBOWL ST","lat":21.305103,"lon":-157.858239,"sequence":6},{"id":"132","code":"132","name":"S KING ST + SOUTH ST","lat":21.303626,"lon":-157.85525,"sequence":7},{"id":"133","code":"133","name":"S KING ST + COOKE ST","lat":21.303136,"lon":-157.853498,"sequence":8},{"id":"135","code":"135","name":"S KING ST + WARD AVE","lat":21.301652,"lon":-157.849339,"sequence":9},{"id":"137","code":"137","name":"S KING ST + PENSACOLA ST","lat":21.300443,"lon":-157.845924,"sequence":10},{"id":"138","code":"138","name":"S KING ST + PIIKOI ST","lat":21.299856,"lon":-157.844223,"sequence":11},{"id":"139","code":"139","name":"S KING ST + CEDAR ST","lat":21.299045,"lon":-157.841921,"sequence":12},{"id":"140","code":"140","name":"S KING ST + KEEAUMOKU ST","lat":21.298364,"lon":-157.839979,"sequence":13},{"id":"141","code":"141","name":"S KING ST + KAHEKA ST","lat":21.297695,"lon":-157.838136,"sequence":14},{"id":"852","code":"852","name":"S KING ST + PUNAHOU ST","lat":21.297026,"lon":-157.836241,"sequence":15},{"id":"854","code":"854","name":"S KING ST + HAUOLI ST","lat":21.295746,"lon":-157.832653,"sequence":16},{"id":"856","code":"856","name":"S KING ST + MCCULLY ST","lat":21.294719,"lon":-157.829805,"sequence":17},{"id":"858","code":"858","name":"S KING ST + MAKAHIKI WAY","lat":21.293972,"lon":-157.827699,"sequence":18},{"id":"859","code":"859","name":"S KING ST + ISENBERG ST","lat":21.293132,"lon":-157.825366,"sequence":19},{"id":"3067","code":"3067","name":"S KING ST + KAPAAKEA LN","lat":21.292098,"lon":-157.822578,"sequence":20},{"id":"3068","code":"3068","name":"S KING ST + KAHUNA LN","lat":21.291357,"lon":-157.820999,"sequence":21},{"id":"3070","code":"3070","name":"S KING ST + CHURCH LN","lat":21.289723,"lon":-157.81795,"sequence":22},{"id":"2997","code":"2997","name":"KAPIOLANI BL + WAIALAE AVE","lat":21.288822,"lon":-157.814098,"sequence":23},{"id":"2998","code":"2998","name":"WAIALAE AVE + OPP ST LOUIS DR","lat":21.288898,"lon":-157.81122,"sequence":24},{"id":"2999","code":"2999","name":"WAIALAE AVE + 3RD AVE","lat":21.287834,"lon":-157.809132,"sequence":25},{"id":"3071","code":"3071","name":"WAIALAE AVE + 4TH AVE","lat":21.287055,"lon":-157.807612,"sequence":26},{"id":"3073","code":"3073","name":"WAIALAE AVE + 7TH AVE","lat":21.285852,"lon":-157.805256,"sequence":27},{"id":"3075","code":"3075","name":"WAIALAE AVE + 9TH AVE","lat":21.284408,"lon":-157.802399,"sequence":28},{"id":"3076","code":"3076","name":"WAIALAE AVE + 10TH AVE","lat":21.283794,"lon":-157.801246,"sequence":29},{"id":"3078","code":"3078","name":"WAIALAE AVE + KOKO HEAD AVE","lat":21.282374,"lon":-157.798399,"sequence":30},{"id":"3079","code":"3079","name":"WAIALAE AVE + 14TH AVE","lat":21.281162,"lon":-157.796065,"sequence":31},{"id":"3081","code":"3081","name":"WAIALAE AVE + 16TH AVE","lat":21.280221,"lon":-157.794282,"sequence":32},{"id":"3084","code":"3084","name":"WAIALAE AVE + HUNAKAI ST","lat":21.278548,"lon":-157.787643,"sequence":33},{"id":"3153","code":"3153","name":"KILAUEA AVE + WAIALAE AVE","lat":21.278953,"lon":-157.784441,"sequence":34},{"id":"3154","code":"3154","name":"MALIA ST + KILAUEA AVE","lat":21.280449,"lon":-157.783846,"sequence":35}]}},"2":{"name":"2","long_name":"School-Waikiki-Kahala","shapes":{"20399_merge":[{"id":"4523","code":"4523","name":"KALIHI TRANSIT CENTER","lat":21.334465,"lon":-157.887741,"sequence":1},{"id":"163","code":"163","name":"KALIHI-PALAMA BUS FACILITY","lat":21.336199,"lon":-157.886154,"sequence":2},{"id":"164","code":"164","name":"MIDDLE ST + KAUA ST","lat":21.33869,"lon":-157.882546,"sequence":3},{"id":"165","code":"165","name":"MIDDLE ST + KAHAUIKI ST","lat":21.340905,"lon":-157.879974,"sequence":4},{"id":"166","code":"166","name":"MIDDLE ST + OPP NOTLEY ST","lat":21.342123,"lon":-157.87845,"sequence":5},{"id":"1411","code":"1411","name":"SCHOOL ST + KAMEHAMEHA IV RD","lat":21.340834,"lon":-157.874427,"sequence":6},{"id":"169","code":"169","name":"SCHOOL ST + LINAPUNI ST","lat":21.33982,"lon":-157.873627,"sequence":7},{"id":"170","code":"170","name":"SCHOOL ST + MARTIN ST","lat":21.338649,"lon":-157.872685,"sequence":8},{"id":"171","code":"171","name":"SCHOOL ST + LEILANI ST","lat":21.336953,"lon":-157.870643,"sequence":9},{"id":"172","code":"172","name":"SCHOOL ST + LIKELIKE HWY","lat":21.335075,"lon":-157.868723,"sequence":10},{"id":"173","code":"173","name":"SCHOOL ST + KAPALAMA ST","lat":21.333913,"lon":-157.867812,"sequence":11},{"id":"174","code":"174","name":"SCHOOL ST + HOUGHTAILING ST","lat":21.332439,"lon":-157.86667,"sequence":12},{"id":"175","code":"175","name":"SCHOOL ST + OPP AUPUNI ST","lat":21.331154,"lon":-157.865621,"sequence":13},{"id":"176","code":"176","name":"SCHOOL ST + KOKEA ST","lat":21.32934,"lon":-157.864457,"sequence":14},{"id":"177","code":"177","name":"SCHOOL ST + 1015","lat":21.328139,"lon":-157.863772,"sequence":15},{"id":"178","code":"178","name":"SCHOOL ST + LANAKILA AVE","lat":21.326976,"lon":-157.863108,"sequence":16},{"id":"179","code":"179","name":"SCHOOL ST + OLD PALAMA ST","lat":21.325828,"lon":-157.862455,"sequence":17},{"id":"180","code":"180","name":"SCHOOL ST + MOMOLIO ST","lat":21.324157,"lon":-157.8615,"sequence":18},{"id":"121","code":"121","name":"LILIHA ST + SCHOOL ST","lat":21.32112,"lon":-157.860711,"sequence":19},{"id":"122","code":"122","name":"LILIHA ST + VINEYARD BL","lat":21.320249,"lon":-157.861872,"sequence":20},{"id":"123","code":"123","name":"LILIHA ST + N KING ST","lat":21.318772,"lon":-157.863827,"sequence":21},{"id":"124","code":"124","name":"N KING ST + N BERETANIA ST","lat":21.316816,"lon":-157.864327,"sequence":22},{"id":"126","code":"126","name":"N HOTEL ST + MAUNAKEA ST","lat":21.312312,"lon":-157.862868,"sequence":23},{"id":"127","code":"127","name":"S HOTEL ST + BETHEL ST","lat":21.310586,"lon":-157.86167,"sequence":24},{"id":"128","code":"128","name":"S HOTEL ST + BISHOP ST","lat":21.309428,"lon":-157.860534,"sequence":25},{"id":"130","code":"130","name":"S HOTEL ST + RICHARDS ST","lat":21.308307,"lon":-157.858888,"sequence":26},{"id":"131","code":"131","name":"S KING ST + PUNCHBOWL ST","lat":21.305103,"lon":-157.858239,"sequence":27},{"id":"132","code":"132","name":"S KING ST + SOUTH ST","lat":21.303626,"lon":-157.85525,"sequence":28},{"id":"133","code":"133","name":"S KING ST + COOKE ST","lat":21.303136,"lon":-157.853498,"sequence":29},{"id":"135","code":"135","name":"S KING ST + WARD AVE","lat":21.301652,"lon":-157.849339,"sequence":30},{"id":"137","code":"137","name":"S KING ST + PENSACOLA ST","lat":21.300443,"lon":-157.845924,"sequence":31},{"id":"138","code":"138","name":"S KING ST + PIIKOI ST","lat":21.299856,"lon":-157.844223,"sequence":32},{"id":"139","code":"139","name":"S KING ST + CEDAR ST","lat":21.299045,"lon":-157.841921,"sequence":33},{"id":"140","code":"140","name":"S KING ST + KEEAUMOKU ST","lat":21.298364,"lon":-157.839979,"sequence":34},{"id":"141","code":"141","name":"S KING ST + KAHEKA ST","lat":21.297695,"lon":-157.838136,"sequence":35},{"id":"142","code":"142","name":"KALAKAUA AVE + S KING ST","lat":21.296535,"lon":-157.837055,"sequence":36},{"id":"143","code":"143","name":"KALAKAUA AVE + OPP PHILIP ST","lat":21.295426,"lon":-157.837045,"sequence":37},{"id":"144","code":"144","name":"KALAKAUA AVE + MAKALOA ST","lat":21.292954,"lon":-157.836873,"sequence":38},{"id":"145","code":"145","name":"KALAKAUA AVE + KAPIOLANI BL","lat":21.290701,"lon":-157.835856,"sequence":39},{"id":"147","code":"147","name":"KALAKAUA AVE + ENA RD","lat":21.28728,"lon":-157.834044,"sequence":40},{"id":"148","code":"148","name":"KUHIO AVE + OPP NAMAHANA ST","lat":21.283762,"lon":-157.831147,"sequence":41},{"id":"4255","code":"4255","name":"KUHIO AVE + OPP LAUNIU ST","lat":21.28234,"lon":-157.829536,"sequence":42},{"id":"150","code":"150","name":"KUHIO AVE + LEWERS ST","lat":21.281497,"lon":-157.828578,"sequence":43},{"id":"151","code":"151","name":"KUHIO AVE + SEASIDE AVE","lat":21.279841,"lon":-157.826671,"sequence":44},{"id":"152","code":"152","name":"KUHIO AVE + KAIULANI AVE","lat":21.277465,"lon":-157.824278,"sequence":45},{"id":"153","code":"153","name":"KUHIO AVE + LILIUOKALANI AVE","lat":21.275579,"lon":-157.822552,"sequence":46},{"id":"154","code":"154","name":"KUHIO AVE + PAOAKALANI AVE","lat":21.274013,"lon":-157.82142,"sequence":47},{"id":"4771","code":"4771","name":"KUHIO AVE + KAPAHULU AVE","lat":21.272086,"lon":-157.820083,"sequence":48},{"id":"156","code":"156","name":"KAPAHULU AVE + KALAKAUA AVE","lat":21.27164,"lon":-157.822429,"sequence":49},{"id":"1861","code":"1861","name":"MONSARRAT AVE + KAPIOLANI PARK (CITY)","lat":21.269455,"lon":-157.819798,"sequence":50},{"id":"235","code":"235","name":"MONSARRAT AVE + KANAINA AVE","lat":21.269006,"lon":-157.813811,"sequence":51},{"id":"4542","code":"4542","name":"CAMPBELL AVE + MAKINI ST","lat":21.271039,"lon":-157.811559,"sequence":52},{"id":"4543","code":"4543","name":"CAMPBELL AVE + ESTHER ST","lat":21.274345,"lon":-157.812386,"sequence":53},{"id":"4544","code":"4544","name":"CAMPBELL AVE + HERBERT ST","lat":21.277091,"lon":-157.813211,"sequence":54},{"id":"4016","code":"4016","name":"KAPAHULU AVE + OPP CAMPBELL AVE","lat":21.277709,"lon":-157.814124,"sequence":55}],"20397_merge":[{"id":"4523","code":"4523","name":"KALIHI TRANSIT CENTER","lat":21.334465,"lon":-157.887741,"sequence":1},{"id":"163","code":"163","name":"KALIHI-PALAMA BUS FACILITY","lat":21.336199,"lon":-157.886154,"sequence":2},{"id":"164","code":"164","name":"MIDDLE ST + KAUA ST","lat":21.33869,"lon":-157.882546,"sequence":3},{"id":"165","code":"165","name":"MIDDLE ST + KAHAUIKI ST","lat":21.340905,"lon":-157.879974,"sequence":4},{"id":"166","code":"166","name":"MIDDLE ST + OPP NOTLEY ST","lat":21.342123,"lon":-157.87845,"sequence":5},{"id":"1411","code":"1411","name":"SCHOOL ST + KAMEHAMEHA IV RD","lat":21.340834,"lon":-157.874427,"sequence":6},{"id":"169","code":"169","name":"SCHOOL ST + LINAPUNI ST","lat":21.33982,"lon":-157.873627,"sequence":7},{"id":"170","code":"170","name":"SCHOOL ST + MARTIN ST","lat":21.338649,"lon":-157.872685,"sequence":8},{"id":"171","code":"171","name":"SCHOOL ST + LEILANI ST","lat":21.336953,"lon":-157.870643,"sequence":9},{"id":"172","code":"172","name":"SCHOOL ST + LIKELIKE HWY","lat":21.335075,"lon":-157.868723,"sequence":10},{"id":"173","code":"173","name":"SCHOOL ST + KAPALAMA ST","lat":21.333913,"lon":-157.867812,"sequence":11},{"id":"174","code":"174","name":"SCHOOL ST + HOUGHTAILING ST","lat":21.332439,"lon":-157.86667,"sequence":12},{"id":"175","code":"175","name":"SCHOOL ST + OPP AUPUNI ST","lat":21.331154,"lon":-157.865621,"sequence":13},{"id":"176","code":"176","name":"SCHOOL ST + KOKEA ST","lat":21.32934,"lon":-157.864457,"sequence":14},{"id":"177","code":"177","name":"SCHOOL ST + 1015","lat":21.328139,"lon":-157.863772,"sequence":15},{"id":"178","code":"178","name":"SCHOOL ST + LANAKILA AVE","lat":21.326976,"lon":-157.863108,"sequence":16},{"id":"179","code":"179","name":"SCHOOL ST + OLD PALAMA ST","lat":21.325828,"lon":-157.862455,"sequence":17},{"id":"180","code":"180","name":"SCHOOL ST + MOMOLIO ST","lat":21.324157,"lon":-157.8615,"sequence":18},{"id":"121","code":"121","name":"LILIHA ST + SCHOOL ST","lat":21.32112,"lon":-157.860711,"sequence":19},{"id":"122","code":"122","name":"LILIHA ST + VINEYARD BL","lat":21.320249,"lon":-157.861872,"sequence":20},{"id":"123","code":"123","name":"LILIHA ST + N KING ST","lat":21.318772,"lon":-157.863827,"sequence":21},{"id":"124","code":"124","name":"N KING ST + N BERETANIA ST","lat":21.316816,"lon":-157.864327,"sequence":22},{"id":"126","code":"126","name":"N HOTEL ST + MAUNAKEA ST","lat":21.312312,"lon":-157.862868,"sequence":23},{"id":"127","code":"127","name":"S HOTEL ST + BETHEL ST","lat":21.310586,"lon":-157.86167,"sequence":24},{"id":"128","code":"128","name":"S HOTEL ST + BISHOP ST","lat":21.309428,"lon":-157.860534,"sequence":25},{"id":"130","code":"130","name":"S HOTEL ST + RICHARDS ST","lat":21.308307,"lon":-157.858888,"sequence":26},{"id":"131","code":"131","name":"S KING ST + PUNCHBOWL ST","lat":21.305103,"lon":-157.858239,"sequence":27},{"id":"132","code":"132","name":"S KING ST + SOUTH ST","lat":21.303626,"lon":-157.85525,"sequence":28},{"id":"133","code":"133","name":"S KING ST + COOKE ST","lat":21.303136,"lon":-157.853498,"sequence":29},{"id":"135","code":"135","name":"S KING ST + WARD AVE","lat":21.301652,"lon":-157.849339,"sequence":30},{"id":"137","code":"137","name":"S KING ST + PENSACOLA ST","lat":21.300443,"lon":-157.845924,"sequence":31},{"id":"138","code":"138","name":"S KING ST + PIIKOI ST","lat":21.299856,"lon":-157.844223,"sequence":32},{"id":"139","code":"139","name":"S KING ST + CEDAR ST","lat":21.299045,"lon":-157.841921,"sequence":33},{"id":"140","code":"140","name":"S KING ST + KEEAUMOKU ST","lat":21.298364,"lon":-157.839979,"sequence":34},{"id":"141","code":"141","name":"S KING ST + KAHEKA ST","lat":21.297695,"lon":-157.838136,"sequence":35},{"id":"142","code":"142","name":"KALAKAUA AVE + S KING ST","lat":21.296535,"lon":-157.837055,"sequence":36},{"id":"143","code":"143","name":"KALAKAUA AVE + OPP PHILIP ST","lat":21.295426,"lon":-157.837045,"sequence":37},{"id":"144","code":"144","name":"KALAKAUA AVE + MAKALOA ST","lat":21.292954,"lon":-157.836873,"sequence":38},{"id":"145","code":"145","name":"KALAKAUA AVE + KAPIOLANI BL","lat":21.290701,"lon":-157.835856,"sequence":39},{"id":"147","code":"147","name":"KALAKAUA AVE + ENA RD","lat":21.28728,"lon":-157.834044,"sequence":40},{"id":"148","code":"148","name":"KUHIO AVE + OPP NAMAHANA ST","lat":21.283762,"lon":-157.831147,"sequence":41},{"id":"4255","code":"4255","name":"KUHIO AVE + OPP LAUNIU ST","lat":21.28234,"lon":-157.829536,"sequence":42},{"id":"150","code":"150","name":"KUHIO AVE + LEWERS ST","lat":21.281497,"lon":-157.828578,"sequence":43},{"id":"151","code":"151","name":"KUHIO AVE + SEASIDE AVE","lat":21.279841,"lon":-157.826671,"sequence":44},{"id":"152","code":"152","name":"KUHIO AVE + KAIULANI AVE","lat":21.277465,"lon":-157.824278,"sequence":45},{"id":"153","code":"153","name":"KUHIO AVE + LILIUOKALANI AVE","lat":21.275579,"lon":-157.822552,"sequence":46},{"id":"154","code":"154","name":"KUHIO AVE + PAOAKALANI AVE","lat":21.274013,"lon":-157.82142,"sequence":47},{"id":"4771","code":"4771","name":"KUHIO AVE + KAPAHULU AVE","lat":21.272086,"lon":-157.820083,"sequence":48},{"id":"183","code":"183","name":"KAPAHULU AVE + PAKI","lat":21.272956,"lon":-157.817049,"sequence":49},{"id":"184","code":"184","name":"KAPAHULU AVE + LEAHI AVE","lat":21.274478,"lon":-157.815944,"sequence":50},{"id":"89","code":"89","name":"KAPAHULU AVE + CAMPBELL AVE","lat":21.277968,"lon":-157.81395,"sequence":51},{"id":"90","code":"90","name":"CAMPBELL AVE + CASTLE ST","lat":21.276742,"lon":-157.813171,"sequence":52},{"id":"91","code":"91","name":"CAMPBELL AVE + CATHERINE ST","lat":21.275616,"lon":-157.812838,"sequence":53},{"id":"92","code":"92","name":"CAMPBELL AVE + ESTHER ST","lat":21.274305,"lon":-157.812442,"sequence":54},{"id":"93","code":"93","name":"CAMPBELL AVE + GEORGE ST","lat":21.27305,"lon":-157.812069,"sequence":55},{"id":"94","code":"94","name":"CAMPBELL AVE + HINANO ST","lat":21.271712,"lon":-157.811707,"sequence":56},{"id":"95","code":"95","name":"CAMPBELL AVE + MONSARRAT AVE","lat":21.269812,"lon":-157.8114,"sequence":57},{"id":"237","code":"237","name":"MONSARRAT AVE + 3251","lat":21.269678,"lon":-157.809533,"sequence":58},{"id":"238","code":"238","name":"MONSARRAT AVE + OPP TROUSSEAU ST","lat":21.269728,"lon":-157.807954,"sequence":59},{"id":"4591","code":"4591","name":"DIAMOND HEAD ROAD + KCC CULINARY SCHOOL","lat":21.26951,"lon":-157.806071,"sequence":60},{"id":"4546","code":"4546","name":"MAKAPUU AVE + OPP MAUNALEI AVE","lat":21.272283,"lon":-157.801608,"sequence":61},{"id":"4545","code":"4545","name":"KILAUEA AVE + MAKAPUU AVE","lat":21.27329,"lon":-157.800621,"sequence":62},{"id":"226","code":"226","name":"18TH AVE + KILAUEA AVE","lat":21.270419,"lon":-157.797539,"sequence":63},{"id":"227","code":"227","name":"18TH AVE + OPP IWALANI PL","lat":21.269535,"lon":-157.798018,"sequence":64}],"20386":[{"id":"4523","code":"4523","name":"KALIHI TRANSIT CENTER","lat":21.334465,"lon":-157.887741,"sequence":1},{"id":"163","code":"163","name":"KALIHI-PALAMA BUS FACILITY","lat":21.336199,"lon":-157.886154,"sequence":2},{"id":"164","code":"164","name":"MIDDLE ST + KAUA ST","lat":21.33869,"lon":-157.882546,"sequence":3},{"id":"165","code":"165","name":"MIDDLE ST + KAHAUIKI ST","lat":21.340905,"lon":-157.879974,"sequence":4},{"id":"166","code":"166","name":"MIDDLE ST + OPP NOTLEY ST","lat":21.342123,"lon":-157.87845,"sequence":5},{"id":"1411","code":"1411","name":"SCHOOL ST + KAMEHAMEHA IV RD","lat":21.340834,"lon":-157.874427,"sequence":6},{"id":"169","code":"169","name":"SCHOOL ST + LINAPUNI ST","lat":21.33982,"lon":-157.873627,"sequence":7},{"id":"170","code":"170","name":"SCHOOL ST + MARTIN ST","lat":21.338649,"lon":-157.872685,"sequence":8},{"id":"171","code":"171","name":"SCHOOL ST + LEILANI ST","lat":21.336953,"lon":-157.870643,"sequence":9},{"id":"172","code":"172","name":"SCHOOL ST + LIKELIKE HWY","lat":21.335075,"lon":-157.868723,"sequence":10},{"id":"173","code":"173","name":"SCHOOL ST + KAPALAMA ST","lat":21.333913,"lon":-157.867812,"sequence":11},{"id":"174","code":"174","name":"SCHOOL ST + HOUGHTAILING ST","lat":21.332439,"lon":-157.86667,"sequence":12},{"id":"175","code":"175","name":"SCHOOL ST + OPP AUPUNI ST","lat":21.331154,"lon":-157.865621,"sequence":13},{"id":"176","code":"176","name":"SCHOOL ST + KOKEA ST","lat":21.32934,"lon":-157.864457,"sequence":14},{"id":"177","code":"177","name":"SCHOOL ST + 1015","lat":21.328139,"lon":-157.863772,"sequence":15},{"id":"178","code":"178","name":"SCHOOL ST + LANAKILA AVE","lat":21.326976,"lon":-157.863108,"sequence":16},{"id":"179","code":"179","name":"SCHOOL ST + OLD PALAMA ST","lat":21.325828,"lon":-157.862455,"sequence":17},{"id":"180","code":"180","name":"SCHOOL ST + MOMOLIO ST","lat":21.324157,"lon":-157.8615,"sequence":18},{"id":"121","code":"121","name":"LILIHA ST + SCHOOL ST","lat":21.32112,"lon":-157.860711,"sequence":19},{"id":"122","code":"122","name":"LILIHA ST + VINEYARD BL","lat":21.320249,"lon":-157.861872,"sequence":20},{"id":"123","code":"123","name":"LILIHA ST + N KING ST","lat":21.318772,"lon":-157.863827,"sequence":21},{"id":"124","code":"124","name":"N KING ST + N BERETANIA ST","lat":21.316816,"lon":-157.864327,"sequence":22},{"id":"126","code":"126","name":"N HOTEL ST + MAUNAKEA ST","lat":21.312312,"lon":-157.862868,"sequence":23},{"id":"127","code":"127","name":"S HOTEL ST + BETHEL ST","lat":21.310586,"lon":-157.86167,"sequence":24},{"id":"128","code":"128","name":"S HOTEL ST + BISHOP ST","lat":21.309428,"lon":-157.860534,"sequence":25},{"id":"130","code":"130","name":"S HOTEL ST + RICHARDS ST","lat":21.308307,"lon":-157.858888,"sequence":26},{"id":"131","code":"131","name":"S KING ST + PUNCHBOWL ST","lat":21.305103,"lon":-157.858239,"sequence":27},{"id":"181","code":"181","name":"ALAPAI ST + S KING ST","lat":21.304125,"lon":-157.853623,"sequence":28},{"id":"45","code":"45","name":"S BERETANIA ST + PUNCHBOWL ST","lat":21.307244,"lon":-157.856142,"sequence":29}],"20400_merge":[{"id":"4523","code":"4523","name":"KALIHI TRANSIT CENTER","lat":21.334465,"lon":-157.887741,"sequence":1},{"id":"163","code":"163","name":"KALIHI-PALAMA BUS FACILITY","lat":21.336199,"lon":-157.886154,"sequence":2},{"id":"164","code":"164","name":"MIDDLE ST + KAUA ST","lat":21.33869,"lon":-157.882546,"sequence":3},{"id":"165","code":"165","name":"MIDDLE ST + KAHAUIKI ST","lat":21.340905,"lon":-157.879974,"sequence":4},{"id":"166","code":"166","name":"MIDDLE ST + OPP NOTLEY ST","lat":21.342123,"lon":-157.87845,"sequence":5},{"id":"1411","code":"1411","name":"SCHOOL ST + KAMEHAMEHA IV RD","lat":21.340834,"lon":-157.874427,"sequence":6},{"id":"169","code":"169","name":"SCHOOL ST + LINAPUNI ST","lat":21.33982,"lon":-157.873627,"sequence":7},{"id":"170","code":"170","name":"SCHOOL ST + MARTIN ST","lat":21.338649,"lon":-157.872685,"sequence":8},{"id":"171","code":"171","name":"SCHOOL ST + LEILANI ST","lat":21.336953,"lon":-157.870643,"sequence":9},{"id":"172","code":"172","name":"SCHOOL ST + LIKELIKE HWY","lat":21.335075,"lon":-157.868723,"sequence":10},{"id":"173","code":"173","name":"SCHOOL ST + KAPALAMA ST","lat":21.333913,"lon":-157.867812,"sequence":11},{"id":"174","code":"174","name":"SCHOOL ST + HOUGHTAILING ST","lat":21.332439,"lon":-157.86667,"sequence":12},{"id":"175","code":"175","name":"SCHOOL ST + OPP AUPUNI ST","lat":21.331154,"lon":-157.865621,"sequence":13},{"id":"176","code":"176","name":"SCHOOL ST + KOKEA ST","lat":21.32934,"lon":-157.864457,"sequence":14},{"id":"177","code":"177","name":"SCHOOL ST + 1015","lat":21.328139,"lon":-157.863772,"sequence":15},{"id":"178","code":"178","name":"SCHOOL ST + LANAKILA AVE","lat":21.326976,"lon":-157.863108,"sequence":16},{"id":"179","code":"179","name":"SCHOOL ST + OLD PALAMA ST","lat":21.325828,"lon":-157.862455,"sequence":17},{"id":"180","code":"180","name":"SCHOOL ST + MOMOLIO ST","lat":21.324157,"lon":-157.8615,"sequence":18},{"id":"121","code":"121","name":"LILIHA ST + SCHOOL ST","lat":21.32112,"lon":-157.860711,"sequence":19},{"id":"122","code":"122","name":"LILIHA ST + VINEYARD BL","lat":21.320249,"lon":-157.861872,"sequence":20},{"id":"123","code":"123","name":"LILIHA ST + N KING ST","lat":21.318772,"lon":-157.863827,"sequence":21},{"id":"124","code":"124","name":"N KING ST + N BERETANIA ST","lat":21.316816,"lon":-157.864327,"sequence":22},{"id":"126","code":"126","name":"N HOTEL ST + MAUNAKEA ST","lat":21.312312,"lon":-157.862868,"sequence":23},{"id":"127","code":"127","name":"S HOTEL ST + BETHEL ST","lat":21.310586,"lon":-157.86167,"sequence":24},{"id":"128","code":"128","name":"S HOTEL ST + BISHOP ST","lat":21.309428,"lon":-157.860534,"sequence":25},{"id":"130","code":"130","name":"S HOTEL ST + RICHARDS ST","lat":21.308307,"lon":-157.858888,"sequence":26},{"id":"131","code":"131","name":"S KING ST + PUNCHBOWL ST","lat":21.305103,"lon":-157.858239,"sequence":27},{"id":"132","code":"132","name":"S KING ST + SOUTH ST","lat":21.303626,"lon":-157.85525,"sequence":28},{"id":"133","code":"133","name":"S KING ST + COOKE ST","lat":21.303136,"lon":-157.853498,"sequence":29},{"id":"135","code":"135","name":"S KING ST + WARD AVE","lat":21.301652,"lon":-157.849339,"sequence":30},{"id":"137","code":"137","name":"S KING ST + PENSACOLA ST","lat":21.300443,"lon":-157.845924,"sequence":31},{"id":"138","code":"138","name":"S KING ST + PIIKOI ST","lat":21.299856,"lon":-157.844223,"sequence":32},{"id":"139","code":"139","name":"S KING ST + CEDAR ST","lat":21.299045,"lon":-157.841921,"sequence":33},{"id":"140","code":"140","name":"S KING ST + KEEAUMOKU ST","lat":21.298364,"lon":-157.839979,"sequence":34},{"id":"141","code":"141","name":"S KING ST + KAHEKA ST","lat":21.297695,"lon":-157.838136,"sequence":35},{"id":"142","code":"142","name":"KALAKAUA AVE + S KING ST","lat":21.296535,"lon":-157.837055,"sequence":36},{"id":"143","code":"143","name":"KALAKAUA AVE + OPP PHILIP ST","lat":21.295426,"lon":-157.837045,"sequence":37},{"id":"144","code":"144","name":"KALAKAUA AVE + MAKALOA ST","lat":21.292954,"lon":-157.836873,"sequence":38},{"id":"145","code":"145","name":"KALAKAUA AVE + KAPIOLANI BL","lat":21.290701,"lon":-157.835856,"sequence":39},{"id":"147","code":"147","name":"KALAKAUA AVE + ENA RD","lat":21.28728,"lon":-157.834044,"sequence":40},{"id":"148","code":"148","name":"KUHIO AVE + OPP NAMAHANA ST","lat":21.283762,"lon":-157.831147,"sequence":41},{"id":"4255","code":"4255","name":"KUHIO AVE + OPP LAUNIU ST","lat":21.28234,"lon":-157.829536,"sequence":42},{"id":"150","code":"150","name":"KUHIO AVE + LEWERS ST","lat":21.281497,"lon":-157.828578,"sequence":43},{"id":"151","code":"151","name":"KUHIO AVE + SEASIDE AVE","lat":21.279841,"lon":-157.826671,"sequence":44},{"id":"152","code":"152","name":"KUHIO AVE + KAIULANI AVE","lat":21.277465,"lon":-157.824278,"sequence":45},{"id":"153","code":"153","name":"KUHIO AVE + LILIUOKALANI AVE","lat":21.275579,"lon":-157.822552,"sequence":46},{"id":"154","code":"154","name":"KUHIO AVE + PAOAKALANI AVE","lat":21.274013,"lon":-157.82142,"sequence":47},{"id":"4771","code":"4771","name":"KUHIO AVE + KAPAHULU AVE","lat":21.272086,"lon":-157.820083,"sequence":48},{"id":"156","code":"156","name":"KAPAHULU AVE + KALAKAUA AVE","lat":21.27164,"lon":-157.822429,"sequence":49},{"id":"1861","code":"1861","name":"MONSARRAT AVE + KAPIOLANI PARK (CITY)","lat":21.269455,"lon":-157.819798,"sequence":50}],"20398_merge":[{"id":"4523","code":"4523","name":"KALIHI TRANSIT CENTER","lat":21.334465,"lon":-157.887741,"sequence":1},{"id":"163","code":"163","name":"KALIHI-PALAMA BUS FACILITY","lat":21.336199,"lon":-157.886154,"sequence":2},{"id":"164","code":"164","name":"MIDDLE ST + KAUA ST","lat":21.33869,"lon":-157.882546,"sequence":3},{"id":"165","code":"165","name":"MIDDLE ST + KAHAUIKI ST","lat":21.340905,"lon":-157.879974,"sequence":4},{"id":"166","code":"166","name":"MIDDLE ST + OPP NOTLEY ST","lat":21.342123,"lon":-157.87845,"sequence":5},{"id":"1411","code":"1411","name":"SCHOOL ST + KAMEHAMEHA IV RD","lat":21.340834,"lon":-157.874427,"sequence":6},{"id":"169","code":"169","name":"SCHOOL ST + LINAPUNI ST","lat":21.33982,"lon":-157.873627,"sequence":7},{"id":"170","code":"170","name":"SCHOOL ST + MARTIN ST","lat":21.338649,"lon":-157.872685,"sequence":8},{"id":"171","code":"171","name":"SCHOOL ST + LEILANI ST","lat":21.336953,"lon":-157.870643,"sequence":9},{"id":"172","code":"172","name":"SCHOOL ST + LIKELIKE HWY","lat":21.335075,"lon":-157.868723,"sequence":10},{"id":"173","code":"173","name":"SCHOOL ST + KAPALAMA ST","lat":21.333913,"lon":-157.867812,"sequence":11},{"id":"174","code":"174","name":"SCHOOL ST + HOUGHTAILING ST","lat":21.332439,"lon":-157.86667,"sequence":12},{"id":"175","code":"175","name":"SCHOOL ST + OPP AUPUNI ST","lat":21.331154,"lon":-157.865621,"sequence":13},{"id":"176","code":"176","name":"SCHOOL ST + KOKEA ST","lat":21.32934,"lon":-157.864457,"sequence":14},{"id":"177","code":"177","name":"SCHOOL ST + 1015","lat":21.328139,"lon":-157.863772,"sequence":15},{"id":"178","code":"178","name":"SCHOOL ST + LANAKILA AVE","lat":21.326976,"lon":-157.863108,"sequence":16},{"id":"179","code":"179","name":"SCHOOL ST + OLD PALAMA ST","lat":21.325828,"lon":-157.862455,"sequence":17},{"id":"180","code":"180","name":"SCHOOL ST + MOMOLIO ST","lat":21.324157,"lon":-157.8615,"sequence":18},{"id":"121","code":"121","name":"LILIHA ST + SCHOOL ST","lat":21.32112,"lon":-157.860711,"sequence":19},{"id":"122","code":"122","name":"LILIHA ST + VINEYARD BL","lat":21.320249,"lon":-157.861872,"sequence":20},{"id":"123","code":"123","name":"LILIHA ST + N KING ST","lat":21.318772,"lon":-157.863827,"sequence":21},{"id":"124","code":"124","name":"N KING ST + N BERETANIA ST","lat":21.316816,"lon":-157.864327,"sequence":22},{"id":"126","code":"126","name":"N HOTEL ST + MAUNAKEA ST","lat":21.312312,"lon":-157.862868,"sequence":23},{"id":"127","code":"127","name":"S HOTEL ST + BETHEL ST","lat":21.310586,"lon":-157.86167,"sequence":24},{"id":"128","code":"128","name":"S HOTEL ST + BISHOP ST","lat":21.309428,"lon":-157.860534,"sequence":25},{"id":"130","code":"130","name":"S HOTEL ST + RICHARDS ST","lat":21.308307,"lon":-157.858888,"sequence":26},{"id":"131","code":"131","name":"S KING ST + PUNCHBOWL ST","lat":21.305103,"lon":-157.858239,"sequence":27},{"id":"132","code":"132","name":"S KING ST + SOUTH ST","lat":21.303626,"lon":-157.85525,"sequence":28},{"id":"133","code":"133","name":"S KING ST + COOKE ST","lat":21.303136,"lon":-157.853498,"sequence":29},{"id":"135","code":"135","name":"S KING ST + WARD AVE","lat":21.301652,"lon":-157.849339,"sequence":30},{"id":"137","code":"137","name":"S KING ST + PENSACOLA ST","lat":21.300443,"lon":-157.845924,"sequence":31},